{"type": "FeatureCollection", "features": [{"type": "Feature", "geometry": {"type": "Point", "coordinates": [141.80555555555557, 45.407222222222224]}, "properties": {"title": "WAKKANAI(WKE)"}}, {"type": "Feature", "geometry": {"type": "Point", "coordinates": [141.78555555555556, 45.00861111111111]}, "properties": {"title": "YOROI"}}, {"type": "Feature", "geometry": {"type": "Point", "coordinates": [141.72916666666666, 43.69944444444444]}, "properties": {"title": "RUMOI"}}, {"type": "Feature", "geometry": {"type": "Point", "coordinates": [141.76, 41.91861111111111]}, "properties": {"title": "TOBBY"}}, {"type": "Feature", "geometry": {"type": "Point", "coordinates": [141.79861111111111, 41.503055555555555]}, "properties": {"title": "LARCH"}}, {"type": "Feature", "geometry": {"type": "Point", "coordinates": [141.32, 40.00388888888889]}, "properties": {"title": "PANSY"}}, {"type": "Feature", "geometry": {"type": "Point", "coordinates": [140.87222222222223, 38.55916666666666]}, "properties": {"title": "ZAHAN"}}, {"type": "Feature", "geometry": {"type": "Point", "coordinates": [140.63555555555556, 37.7475]}, "properties": {"title": "RUBIS"}}, {"type": "Feature", "geometry": {"type": "Point", "coordinates": [140.49416666666664, 37.254444444444445]}, "properties": {"title": "ASHRA"}}, {"type": "Feature", "geometry": {"type": "Point", "coordinates": [140.44805555555556, 37.092222222222226]}, "properties": {"title": "LANAI"}}, {"type": "Feature", "geometry": {"type": "Point", "coordinates": [140.4013888888889, 36.92722222222222]}, "properties": {"title": "GENJI"}}, {"type": "Feature", "geometry": {"type": "Point", "coordinates": [140.34972222222223, 36.74444444444445]}, "properties": {"title": "DAIGO"}}, {"type": "Feature", "geometry": {"type": "Point", "coordinates": [140.25666666666666, 36.27972222222222]}, "properties": {"title": "STONE"}}, {"type": "Feature", "geometry": {"type": "Point", "coordinates": [141.95555555555555, 42.555]}, "properties": {"title": "MUKAWA(MKE)"}}, {"type": "Feature", "geometry": {"type": "Point", "coordinates": [141.76, 41.91861111111111]}, "properties": {"title": "TOBBY"}}, {"type": "Feature", "geometry": {"type": "Point", "coordinates": [141.9152777777778, 40.26416666666667]}, "properties": {"title": "CAVES"}}, {"type": "Feature", "geometry": {"type": "Point", "coordinates": [140.5988888888889, 37.532222222222224]}, "properties": {"title": "HERON"}}, {"type": "Feature", "geometry": {"type": "Point", "coordinates": [142.33027777777778, 43.67305555555555]}, "properties": {"title": "KAGRA"}}, {"type": "Feature", "geometry": {"type": "Point", "coordinates": [142.0238888888889, 43.525555555555556]}, "properties": {"title": "UTASI"}}, {"type": "Feature", "geometry": {"type": "Point", "coordinates": [141.76, 41.91861111111111]}, "properties": {"title": "TOBBY"}}, {"type": "Feature", "geometry": {"type": "Point", "coordinates": [141.18666666666667, 45.245555555555555]}, "properties": {"title": "RISHIRI(RSE)"}}, {"type": "Feature", "geometry": {"type": "Point", "coordinates": [141.78555555555556, 45.00861111111111]}, "properties": {"title": "YOROI"}}, {"type": "Feature", "geometry": {"type": "Point", "coordinates": [140.63555555555556, 37.7475]}, "properties": {"title": "RUBIS"}}, {"type": "Feature", "geometry": {"type": "Point", "coordinates": [140.25666666666666, 36.27972222222222]}, "properties": {"title": "STONE"}}, {"type": "Feature", "geometry": {"type": "Point", "coordinates": [140.20555555555555, 36.02111111111111]}, "properties": {"title": "COLOR"}}, {"type": "Feature", "geometry": {"type": "Point", "coordinates": [140.18861111111113, 35.57138888888889]}, "properties": {"title": "HONDA"}}, {"type": "Feature", "geometry": {"type": "Point", "coordinates": [140.16, 34.97138888888889]}, "properties": {"title": "YOHRO"}}, {"type": "Feature", "geometry": {"type": "Point", "coordinates": [139.89555555555555, 34.94638888888888]}, "properties": {"title": "UTIBO"}}, {"type": "Feature", "geometry": {"type": "Point", "coordinates": [140.34972222222223, 36.74444444444445]}, "properties": {"title": "DAIGO"}}, {"type": "Feature", "geometry": {"type": "Point", "coordinates": [140.79944444444445, 35.72638888888889]}, "properties": {"title": "INUBO"}}, {"type": "Feature", "geometry": {"type": "Point", "coordinates": [140.37083333333334, 35.183611111111105]}, "properties": {"title": "MESSE"}}, {"type": "Feature", "geometry": {"type": "Point", "coordinates": [139.89555555555555, 34.94638888888888]}, "properties": {"title": "UTIBO"}}, {"type": "Feature", "geometry": {"type": "Point", "coordinates": [139.81361111111113, 35.20527777777778]}, "properties": {"title": "UMUKI"}}, {"type": "Feature", "geometry": {"type": "Point", "coordinates": [139.77833333333334, 35.316111111111105]}, "properties": {"title": "KAIHO"}}, {"type": "Feature", "geometry": {"type": "Point", "coordinates": [140.69944444444445, 34.90861111111111]}, "properties": {"title": "ANGEL"}}, {"type": "Feature", "geometry": {"type": "Point", "coordinates": [140.5225, 35.05694444444444]}, "properties": {"title": "MERCY"}}, {"type": "Feature", "geometry": {"type": "Point", "coordinates": [141.52472222222224, 42.12888888888889]}, "properties": {"title": "NAVER"}}, {"type": "Feature", "geometry": {"type": "Point", "coordinates": [141.46972222222223, 41.933055555555555]}, "properties": {"title": "IBURI"}}, {"type": "Feature", "geometry": {"type": "Point", "coordinates": [141.29194444444445, 41.29805555555556]}, "properties": {"title": "CAPLY"}}, {"type": "Feature", "geometry": {"type": "Point", "coordinates": [141.1575, 40.80888888888889]}, "properties": {"title": "JYONA"}}, {"type": "Feature", "geometry": {"type": "Point", "coordinates": [140.83333333333334, 39.84055555555556]}, "properties": {"title": "PEONY"}}, {"type": "Feature", "geometry": {"type": "Point", "coordinates": [140.5613888888889, 39.01833333333333]}, "properties": {"title": "HANKA"}}, {"type": "Feature", "geometry": {"type": "Point", "coordinates": [140.15305555555557, 37.61333333333334]}, "properties": {"title": "SHIRO"}}, {"type": "Feature", "geometry": {"type": "Point", "coordinates": [140.08055555555555, 37.33444444444444]}, "properties": {"title": "RINOA"}}, {"type": "Feature", "geometry": {"type": "Point", "coordinates": [140.0038888888889, 37.03861111111111]}, "properties": {"title": "SYOEN"}}, {"type": "Feature", "geometry": {"type": "Point", "coordinates": [139.96194444444444, 36.875277777777775]}, "properties": {"title": "YAITA"}}, {"type": "Feature", "geometry": {"type": "Point", "coordinates": [139.8525, 36.279444444444444]}, "properties": {"title": "JYOSO"}}, {"type": "Feature", "geometry": {"type": "Point", "coordinates": [139.83916666666667, 36.01083333333333]}, "properties": {"title": "SEKIYADO(SYE)"}}, {"type": "Feature", "geometry": {"type": "Point", "coordinates": [143.35777777777778, 42.45166666666667]}, "properties": {"title": "TAIKI"}}, {"type": "Feature", "geometry": {"type": "Point", "coordinates": [143.48388888888888, 42.192499999999995]}, "properties": {"title": "RACKO"}}, {"type": "Feature", "geometry": {"type": "Point", "coordinates": [143.59194444444447, 41.967222222222226]}, "properties": {"title": "HIROO"}}, {"type": "Feature", "geometry": {"type": "Point", "coordinates": [143.8013888888889, 41.52638888888889]}, "properties": {"title": "ERIMO"}}, {"type": "Feature", "geometry": {"type": "Point", "coordinates": [144.19805555555556, 43.48555555555556]}, "properties": {"title": "OZORA"}}, {"type": "Feature", "geometry": {"type": "Point", "coordinates": [144.14638888888888, 42.82138888888889]}, "properties": {"title": "CRANE"}}, {"type": "Feature", "geometry": {"type": "Point", "coordinates": [144.07333333333332, 42.55444444444444]}, "properties": {"title": "AKESI"}}, {"type": "Feature", "geometry": {"type": "Point", "coordinates": [143.8013888888889, 41.52638888888889]}, "properties": {"title": "ERIMO"}}, {"type": "Feature", "geometry": {"type": "Point", "coordinates": [143.59666666666666, 40.745]}, "properties": {"title": "ALICE"}}, {"type": "Feature", "geometry": {"type": "Point", "coordinates": [143.21055555555554, 40.54277777777778]}, "properties": {"title": "LIDEL"}}, {"type": "Feature", "geometry": {"type": "Point", "coordinates": [142.2836111111111, 43.45111111111111]}, "properties": {"title": "ASIBE"}}, {"type": "Feature", "geometry": {"type": "Point", "coordinates": [141.46972222222223, 41.933055555555555]}, "properties": {"title": "IBURI"}}, {"type": "Feature", "geometry": {"type": "Point", "coordinates": [140.75055555555556, 41.11055555555556]}, "properties": {"title": "HIBAR"}}, {"type": "Feature", "geometry": {"type": "Point", "coordinates": [140.73722222222221, 41.00277777777778]}, "properties": {"title": "BYOBU"}}, {"type": "Feature", "geometry": {"type": "Point", "coordinates": [140.66805555555555, 40.49027777777778]}, "properties": {"title": "YACHI"}}, {"type": "Feature", "geometry": {"type": "Point", "coordinates": [140.63833333333332, 40.291666666666664]}, "properties": {"title": "HINAI"}}, {"type": "Feature", "geometry": {"type": "Point", "coordinates": [140.55166666666668, 39.70111111111111]}, "properties": {"title": "WAPPA"}}, {"type": "Feature", "geometry": {"type": "Point", "coordinates": [142.45694444444445, 43.66722222222222]}, "properties": {"title": "ASAHIKAWA(AWE)"}}, {"type": "Feature", "geometry": {"type": "Point", "coordinates": [140.1625, 38.53722222222222]}, "properties": {"title": "USUBA"}}, {"type": "Feature", "geometry": {"type": "Point", "coordinates": [140.15833333333333, 38.12]}, "properties": {"title": "GASAN"}}, {"type": "Feature", "geometry": {"type": "Point", "coordinates": [140.15305555555557, 37.61333333333334]}, "properties": {"title": "SHIRO"}}, {"type": "Feature", "geometry": {"type": "Point", "coordinates": [140.1552777777778, 37.38333333333333]}, "properties": {"title": "HATRI"}}, {"type": "Feature", "geometry": {"type": "Point", "coordinates": [142.97305555555556, 44.01916666666666]}, "properties": {"title": "LUBEK"}}, {"type": "Feature", "geometry": {"type": "Point", "coordinates": [142.45694444444445, 43.66722222222222]}, "properties": {"title": "ASAHIKAWA(AWE)"}}, {"type": "Feature", "geometry": {"type": "Point", "coordinates": [142.2836111111111, 43.45111111111111]}, "properties": {"title": "ASIBE"}}, {"type": "Feature", "geometry": {"type": "Point", "coordinates": [140.165, 41.13472222222222]}, "properties": {"title": "TAPPI"}}, {"type": "Feature", "geometry": {"type": "Point", "coordinates": [139.92777777777778, 40.44361111111111]}, "properties": {"title": "ARIKA"}}, {"type": "Feature", "geometry": {"type": "Point", "coordinates": [139.77944444444447, 40.00361111111111]}, "properties": {"title": "OTOME"}}, {"type": "Feature", "geometry": {"type": "Point", "coordinates": [138.5552777777778, 37.12583333333333]}, "properties": {"title": "FINGA"}}, {"type": "Feature", "geometry": {"type": "Point", "coordinates": [137.91972222222222, 36.15611111111111]}, "properties": {"title": "MATSUMOTO(MBE)"}}, {"type": "Feature", "geometry": {"type": "Point", "coordinates": [137.50083333333333, 35.53138888888889]}, "properties": {"title": "AKANE"}}, {"type": "Feature", "geometry": {"type": "Point", "coordinates": [137.46305555555554, 35.467222222222226]}, "properties": {"title": "NAKTU"}}, {"type": "Feature", "geometry": {"type": "Point", "coordinates": [136.95805555555555, 34.70472222222222]}, "properties": {"title": "KOHWA"}}, {"type": "Feature", "geometry": {"type": "Point", "coordinates": [136.58861111111113, 34.30444444444444]}, "properties": {"title": "SHIMA"}}, {"type": "Feature", "geometry": {"type": "Point", "coordinates": [136.3936111111111, 34.096111111111114]}, "properties": {"title": "AYANO"}}, {"type": "Feature", "geometry": {"type": "Point", "coordinates": [136.14638888888888, 33.830000000000005]}, "properties": {"title": "RAYJO"}}, {"type": "Feature", "geometry": {"type": "Point", "coordinates": [137.91972222222222, 36.15611111111111]}, "properties": {"title": "MATSUMOTO(MBE)"}}, {"type": "Feature", "geometry": {"type": "Point", "coordinates": [137.52972222222223, 35.705555555555556]}, "properties": {"title": "MAPLE"}}, {"type": "Feature", "geometry": {"type": "Point", "coordinates": [137.40694444444446, 35.56305555555555]}, "properties": {"title": "MAMLA"}}, {"type": "Feature", "geometry": {"type": "Point", "coordinates": [137.25805555555556, 35.38944444444444]}, "properties": {"title": "SWING"}}, {"type": "Feature", "geometry": {"type": "Point", "coordinates": [136.80305555555557, 34.85805555555556]}, "properties": {"title": "CHUBU(CBE)"}}, {"type": "Feature", "geometry": {"type": "Point", "coordinates": [136.18138888888888, 34.58777777777778]}, "properties": {"title": "LABEL"}}, {"type": "Feature", "geometry": {"type": "Point", "coordinates": [140.05444444444444, 40.07277777777778]}, "properties": {"title": "OBAKO"}}, {"type": "Feature", "geometry": {"type": "Point", "coordinates": [139.63527777777776, 39.15138888888889]}, "properties": {"title": "YOHKO"}}, {"type": "Feature", "geometry": {"type": "Point", "coordinates": [139.40611111111113, 38.636944444444445]}, "properties": {"title": "ATUMI"}}, {"type": "Feature", "geometry": {"type": "Point", "coordinates": [139.30861111111113, 38.39972222222222]}, "properties": {"title": "BUDOH"}}, {"type": "Feature", "geometry": {"type": "Point", "coordinates": [139.20472222222222, 38.16305555555555]}, "properties": {"title": "INAHO"}}, {"type": "Feature", "geometry": {"type": "Point", "coordinates": [140.5613888888889, 39.01833333333333]}, "properties": {"title": "HANKA"}}, {"type": "Feature", "geometry": {"type": "Point", "coordinates": [140.29666666666665, 38.83361111111111]}, "properties": {"title": "MAMRO"}}, {"type": "Feature", "geometry": {"type": "Point", "coordinates": [137.46305555555554, 35.467222222222226]}, "properties": {"title": "NAKTU"}}, {"type": "Feature", "geometry": {"type": "Point", "coordinates": [137.48916666666665, 35.263888888888886]}, "properties": {"title": "TEBAS"}}, {"type": "Feature", "geometry": {"type": "Point", "coordinates": [137.54305555555555, 34.84111111111111]}, "properties": {"title": "KIKOL"}}, {"type": "Feature", "geometry": {"type": "Point", "coordinates": [141.31555555555556, 41.96611111111111]}, "properties": {"title": "SIRAO"}}, {"type": "Feature", "geometry": {"type": "Point", "coordinates": [141.26, 41.86333333333334]}, "properties": {"title": "KAMDO"}}, {"type": "Feature", "geometry": {"type": "Point", "coordinates": [141.17249999999999, 41.68416666666666]}, "properties": {"title": "TIKYU"}}, {"type": "Feature", "geometry": {"type": "Point", "coordinates": [140.98777777777775, 41.309444444444445]}, "properties": {"title": "OHMAR"}}, {"type": "Feature", "geometry": {"type": "Point", "coordinates": [140.78166666666667, 40.894999999999996]}, "properties": {"title": "SMELT"}}, {"type": "Feature", "geometry": {"type": "Point", "coordinates": [140.06222222222223, 39.711666666666666]}, "properties": {"title": "AKITA"}}, {"type": "Feature", "geometry": {"type": "Point", "coordinates": [139.69222222222223, 39.028888888888886]}, "properties": {"title": "BENNY"}}, {"type": "Feature", "geometry": {"type": "Point", "coordinates": [138.94194444444446, 38.12111111111111]}, "properties": {"title": "BASIN"}}, {"type": "Feature", "geometry": {"type": "Point", "coordinates": [137.6977777777778, 36.55361111111111]}, "properties": {"title": "KROBE"}}, {"type": "Feature", "geometry": {"type": "Point", "coordinates": [137.35777777777778, 36.19777777777777]}, "properties": {"title": "GOHEI"}}, {"type": "Feature", "geometry": {"type": "Point", "coordinates": [136.57722222222222, 35.36416666666667]}, "properties": {"title": "GUJYO"}}, {"type": "Feature", "geometry": {"type": "Point", "coordinates": [141.52472222222224, 42.12888888888889]}, "properties": {"title": "NAVER"}}, {"type": "Feature", "geometry": {"type": "Point", "coordinates": [141.35416666666666, 41.95805555555556]}, "properties": {"title": "KOJYO"}}, {"type": "Feature", "geometry": {"type": "Point", "coordinates": [141.26, 41.86333333333334]}, "properties": {"title": "KAMDO"}}, {"type": "Feature", "geometry": {"type": "Point", "coordinates": [140.63833333333332, 40.291666666666664]}, "properties": {"title": "HINAI"}}, {"type": "Feature", "geometry": {"type": "Point", "coordinates": [140.06222222222223, 39.711666666666666]}, "properties": {"title": "AKITA"}}, {"type": "Feature", "geometry": {"type": "Point", "coordinates": [137.55611111111114, 37.77777777777778]}, "properties": {"title": "MARON"}}, {"type": "Feature", "geometry": {"type": "Point", "coordinates": [137.35777777777778, 36.19777777777777]}, "properties": {"title": "GOHEI"}}, {"type": "Feature", "geometry": {"type": "Point", "coordinates": [143.00694444444446, 43.091944444444444]}, "properties": {"title": "NOTAK"}}, {"type": "Feature", "geometry": {"type": "Point", "coordinates": [142.46527777777777, 42.805277777777775]}, "properties": {"title": "BOKSO"}}, {"type": "Feature", "geometry": {"type": "Point", "coordinates": [141.95555555555555, 42.555]}, "properties": {"title": "MUKAWA(MKE)"}}, {"type": "Feature", "geometry": {"type": "Point", "coordinates": [140.8322222222222, 41.774166666666666]}, "properties": {"title": "HAKODATE(HWE)"}}, {"type": "Feature", "geometry": {"type": "Point", "coordinates": [139.92777777777778, 40.44361111111111]}, "properties": {"title": "ARIKA"}}, {"type": "Feature", "geometry": {"type": "Point", "coordinates": [139.66416666666666, 40.05083333333333]}, "properties": {"title": "NYUDO"}}, {"type": "Feature", "geometry": {"type": "Point", "coordinates": [138.40972222222223, 38.06583333333333]}, "properties": {"title": "GOLDO"}}, {"type": "Feature", "geometry": {"type": "Point", "coordinates": [138.1036111111111, 37.93055555555555]}, "properties": {"title": "TATAM"}}, {"type": "Feature", "geometry": {"type": "Point", "coordinates": [136.04416666666665, 36.98777777777778]}, "properties": {"title": "HOTAL"}}, {"type": "Feature", "geometry": {"type": "Point", "coordinates": [134.50333333333333, 36.24277777777778]}, "properties": {"title": "SAMON"}}, {"type": "Feature", "geometry": {"type": "Point", "coordinates": [133.83555555555557, 35.90888888888889]}, "properties": {"title": "DRIPS"}}, {"type": "Feature", "geometry": {"type": "Point", "coordinates": [133.0938888888889, 35.53111111111111]}, "properties": {"title": "MIHOU"}}, {"type": "Feature", "geometry": {"type": "Point", "coordinates": [131.5363888888889, 34.53388888888889]}, "properties": {"title": "HALNA"}}, {"type": "Feature", "geometry": {"type": "Point", "coordinates": [131.01611111111112, 34.19083333333333]}, "properties": {"title": "STOUT"}}, {"type": "Feature", "geometry": {"type": "Point", "coordinates": [130.44222222222223, 33.14222222222222]}, "properties": {"title": "OSTEP"}}, {"type": "Feature", "geometry": {"type": "Point", "coordinates": [130.45027777777776, 33.05888888888889]}, "properties": {"title": "OMUTA"}}, {"type": "Feature", "geometry": {"type": "Point", "coordinates": [130.4711111111111, 32.863055555555555]}, "properties": {"title": "TAIME"}}, {"type": "Feature", "geometry": {"type": "Point", "coordinates": [130.49027777777778, 32.655277777777776]}, "properties": {"title": "FUGEN"}}, {"type": "Feature", "geometry": {"type": "Point", "coordinates": [130.515, 32.394999999999996]}, "properties": {"title": "HINAG"}}, {"type": "Feature", "geometry": {"type": "Point", "coordinates": [130.5211111111111, 32.29972222222222]}, "properties": {"title": "SASIK"}}, {"type": "Feature", "geometry": {"type": "Point", "coordinates": [134.50333333333333, 36.24277777777778]}, "properties": {"title": "SAMON"}}, {"type": "Feature", "geometry": {"type": "Point", "coordinates": [133.01388888888889, 34.89361111111111]}, "properties": {"title": "BIHOK"}}, {"type": "Feature", "geometry": {"type": "Point", "coordinates": [132.41222222222223, 34.330555555555556]}, "properties": {"title": "OYSTR"}}, {"type": "Feature", "geometry": {"type": "Point", "coordinates": [132.1472222222222, 34.07944444444445]}, "properties": {"title": "MARCO"}}, {"type": "Feature", "geometry": {"type": "Point", "coordinates": [136.72083333333333, 37.099444444444444]}, "properties": {"title": "NESKO"}}, {"type": "Feature", "geometry": {"type": "Point", "coordinates": [134.50333333333333, 36.24277777777778]}, "properties": {"title": "SAMON"}}, {"type": "Feature", "geometry": {"type": "Point", "coordinates": [134.51805555555558, 35.91694444444444]}, "properties": {"title": "SAKYU"}}, {"type": "Feature", "geometry": {"type": "Point", "coordinates": [133.35805555555555, 35.52583333333333]}, "properties": {"title": "ORUDA"}}, {"type": "Feature", "geometry": {"type": "Point", "coordinates": [133.2763888888889, 35.49777777777778]}, "properties": {"title": "ADLEB"}}, {"type": "Feature", "geometry": {"type": "Point", "coordinates": [133.1497222222222, 35.45388888888889]}, "properties": {"title": "DULOK"}}, {"type": "Feature", "geometry": {"type": "Point", "coordinates": [132.77416666666667, 35.323055555555555]}, "properties": {"title": "LATOR"}}, {"type": "Feature", "geometry": {"type": "Point", "coordinates": [132.45194444444442, 35.20944444444445]}, "properties": {"title": "VIBEL"}}, {"type": "Feature", "geometry": {"type": "Point", "coordinates": [132.25666666666666, 35.151111111111106]}, "properties": {"title": "OSPEL"}}, {"type": "Feature", "geometry": {"type": "Point", "coordinates": [132.05666666666667, 35.09055555555556]}, "properties": {"title": "SAMBA"}}, {"type": "Feature", "geometry": {"type": "Point", "coordinates": [140.45555555555555, 40.40611111111111]}, "properties": {"title": "IWASE"}}, {"type": "Feature", "geometry": {"type": "Point", "coordinates": [140.32416666666666, 39.91583333333333]}, "properties": {"title": "MAGGY"}}, {"type": "Feature", "geometry": {"type": "Point", "coordinates": [140.46305555555554, 37.77305555555555]}, "properties": {"title": "OWLET"}}, {"type": "Feature", "geometry": {"type": "Point", "coordinates": [140.15305555555557, 37.61333333333334]}, "properties": {"title": "SHIRO"}}, {"type": "Feature", "geometry": {"type": "Point", "coordinates": [140.00833333333333, 37.53805555555555]}, "properties": {"title": "INAWA"}}, {"type": "Feature", "geometry": {"type": "Point", "coordinates": [139.74416666666664, 37.400277777777774]}, "properties": {"title": "HEIKE"}}, {"type": "Feature", "geometry": {"type": "Point", "coordinates": [139.51166666666666, 37.17388888888889]}, "properties": {"title": "DANDY"}}, {"type": "Feature", "geometry": {"type": "Point", "coordinates": [139.14916666666667, 36.81722222222223]}, "properties": {"title": "TADMI"}}, {"type": "Feature", "geometry": {"type": "Point", "coordinates": [138.5361111111111, 36.20777777777778]}, "properties": {"title": "MYOGI"}}, {"type": "Feature", "geometry": {"type": "Point", "coordinates": [138.00694444444446, 35.66972222222222]}, "properties": {"title": "TENRU"}}, {"type": "Feature", "geometry": {"type": "Point", "coordinates": [138.5361111111111, 36.20777777777778]}, "properties": {"title": "MYOGI"}}, {"type": "Feature", "geometry": {"type": "Point", "coordinates": [138.31777777777776, 35.87166666666667]}, "properties": {"title": "AMIDA"}}, {"type": "Feature", "geometry": {"type": "Point", "coordinates": [138.0413888888889, 35.442499999999995]}, "properties": {"title": "CHAUS"}}, {"type": "Feature", "geometry": {"type": "Point", "coordinates": [140.90833333333333, 39.13388888888889]}, "properties": {"title": "SIOMO"}}, {"type": "Feature", "geometry": {"type": "Point", "coordinates": [139.74416666666664, 37.400277777777774]}, "properties": {"title": "HEIKE"}}, {"type": "Feature", "geometry": {"type": "Point", "coordinates": [140.79944444444445, 35.72638888888889]}, "properties": {"title": "INUBO"}}, {"type": "Feature", "geometry": {"type": "Point", "coordinates": [140.26555555555555, 35.77388888888889]}, "properties": {"title": "TETRA"}}, {"type": "Feature", "geometry": {"type": "Point", "coordinates": [139.84194444444447, 35.781666666666666]}, "properties": {"title": "SOUKA"}}, {"type": "Feature", "geometry": {"type": "Point", "coordinates": [139.40916666666666, 35.81805555555556]}, "properties": {"title": "NAKNO"}}, {"type": "Feature", "geometry": {"type": "Point", "coordinates": [139.15722222222223, 35.83833333333334]}, "properties": {"title": "ACKUN"}}, {"type": "Feature", "geometry": {"type": "Point", "coordinates": [138.56555555555556, 35.884166666666665]}, "properties": {"title": "CHINO"}}, {"type": "Feature", "geometry": {"type": "Point", "coordinates": [137.55305555555557, 35.905]}, "properties": {"title": "OZAKA"}}, {"type": "Feature", "geometry": {"type": "Point", "coordinates": [135.98944444444444, 35.92055555555555]}, "properties": {"title": "KOCHO"}}, {"type": "Feature", "geometry": {"type": "Point", "coordinates": [134.51805555555558, 35.91694444444444]}, "properties": {"title": "SAKYU"}}, {"type": "Feature", "geometry": {"type": "Point", "coordinates": [133.83555555555557, 35.90888888888889]}, "properties": {"title": "DRIPS"}}, {"type": "Feature", "geometry": {"type": "Point", "coordinates": [139.40916666666666, 35.81805555555556]}, "properties": {"title": "NAKNO"}}, {"type": "Feature", "geometry": {"type": "Point", "coordinates": [139.15722222222223, 35.79277777777778]}, "properties": {"title": "MITOH"}}, {"type": "Feature", "geometry": {"type": "Point", "coordinates": [138.44555555555556, 35.71888888888889]}, "properties": {"title": "SILVI"}}, {"type": "Feature", "geometry": {"type": "Point", "coordinates": [136.97972222222222, 35.524166666666666]}, "properties": {"title": "FUSOH"}}, {"type": "Feature", "geometry": {"type": "Point", "coordinates": [133.64, 35.519444444444446]}, "properties": {"title": "RAKDA"}}, {"type": "Feature", "geometry": {"type": "Point", "coordinates": [133.35805555555555, 35.52583333333333]}, "properties": {"title": "ORUDA"}}, {"type": "Feature", "geometry": {"type": "Point", "coordinates": [133.0938888888889, 35.53111111111111]}, "properties": {"title": "MIHOU"}}, {"type": "Feature", "geometry": {"type": "Point", "coordinates": [138.44555555555556, 35.71888888888889]}, "properties": {"title": "SILVI"}}, {"type": "Feature", "geometry": {"type": "Point", "coordinates": [137.81722222222223, 35.850833333333334]}, "properties": {"title": "INASI"}}, {"type": "Feature", "geometry": {"type": "Point", "coordinates": [137.55305555555557, 35.905]}, "properties": {"title": "OZAKA"}}, {"type": "Feature", "geometry": {"type": "Point", "coordinates": [136.97972222222222, 35.524166666666666]}, "properties": {"title": "FUSOH"}}, {"type": "Feature", "geometry": {"type": "Point", "coordinates": [136.17694444444444, 35.237500000000004]}, "properties": {"title": "HIKNE"}}, {"type": "Feature", "geometry": {"type": "Point", "coordinates": [134.68944444444446, 35.503055555555555]}, "properties": {"title": "KANNA"}}, {"type": "Feature", "geometry": {"type": "Point", "coordinates": [134.165, 35.52722222222222]}, "properties": {"title": "TOTTORI(TRE)"}}, {"type": "Feature", "geometry": {"type": "Point", "coordinates": [133.64, 35.519444444444446]}, "properties": {"title": "RAKDA"}}, {"type": "Feature", "geometry": {"type": "Point", "coordinates": [134.48444444444442, 35.270833333333336]}, "properties": {"title": "TOZAN"}}, {"type": "Feature", "geometry": {"type": "Point", "coordinates": [139.87722222222223, 39.809999999999995]}, "properties": {"title": "NAMMY"}}, {"type": "Feature", "geometry": {"type": "Point", "coordinates": [138.40972222222223, 38.06583333333333]}, "properties": {"title": "GOLDO"}}, {"type": "Feature", "geometry": {"type": "Point", "coordinates": [139.475, 35.65694444444444]}, "properties": {"title": "SEKID"}}, {"type": "Feature", "geometry": {"type": "Point", "coordinates": [139.14388888888888, 35.62361111111111]}, "properties": {"title": "TAKAO"}}, {"type": "Feature", "geometry": {"type": "Point", "coordinates": [138.5577777777778, 35.56222222222222]}, "properties": {"title": "KOSYU"}}, {"type": "Feature", "geometry": {"type": "Point", "coordinates": [137.64888888888888, 35.44277777777778]}, "properties": {"title": "MAGOH"}}, {"type": "Feature", "geometry": {"type": "Point", "coordinates": [137.25805555555556, 35.38944444444444]}, "properties": {"title": "SWING"}}, {"type": "Feature", "geometry": {"type": "Point", "coordinates": [136.98277777777778, 35.35166666666667]}, "properties": {"title": "OWARI"}}, {"type": "Feature", "geometry": {"type": "Point", "coordinates": [136.62694444444446, 35.301944444444445]}, "properties": {"title": "OGAKI"}}, {"type": "Feature", "geometry": {"type": "Point", "coordinates": [136.17694444444444, 35.237500000000004]}, "properties": {"title": "HIKNE"}}, {"type": "Feature", "geometry": {"type": "Point", "coordinates": [136.04916666666668, 35.21888888888889]}, "properties": {"title": "KRAMA"}}, {"type": "Feature", "geometry": {"type": "Point", "coordinates": [135.79833333333332, 35.18194444444444]}, "properties": {"title": "ARASI"}}, {"type": "Feature", "geometry": {"type": "Point", "coordinates": [135.28083333333333, 35.09444444444445]}, "properties": {"title": "GINJI"}}, {"type": "Feature", "geometry": {"type": "Point", "coordinates": [134.92555555555555, 35.032777777777774]}, "properties": {"title": "WAKIT"}}, {"type": "Feature", "geometry": {"type": "Point", "coordinates": [134.68861111111113, 34.99111111111111]}, "properties": {"title": "KAMMY"}}, {"type": "Feature", "geometry": {"type": "Point", "coordinates": [133.8536111111111, 34.82416666666667]}, "properties": {"title": "CLOVE"}}, {"type": "Feature", "geometry": {"type": "Point", "coordinates": [132.42805555555555, 34.51555555555556]}, "properties": {"title": "BASIL"}}, {"type": "Feature", "geometry": {"type": "Point", "coordinates": [131.64944444444444, 34.33861111111111]}, "properties": {"title": "PASLI"}}, {"type": "Feature", "geometry": {"type": "Point", "coordinates": [131.01611111111112, 34.19083333333333]}, "properties": {"title": "STOUT"}}, {"type": "Feature", "geometry": {"type": "Point", "coordinates": [130.82194444444445, 34.12166666666667]}, "properties": {"title": "KIRIN"}}, {"type": "Feature", "geometry": {"type": "Point", "coordinates": [130.59111111111113, 34.038888888888884]}, "properties": {"title": "EBISU"}}, {"type": "Feature", "geometry": {"type": "Point", "coordinates": [129.77694444444447, 33.7475]}, "properties": {"title": "IKI(IKE)"}}, {"type": "Feature", "geometry": {"type": "Point", "coordinates": [134.92555555555555, 35.032777777777774]}, "properties": {"title": "WAKIT"}}, {"type": "Feature", "geometry": {"type": "Point", "coordinates": [134.76333333333332, 34.66361111111111]}, "properties": {"title": "TRACY"}}, {"type": "Feature", "geometry": {"type": "Point", "coordinates": [134.68861111111113, 34.99111111111111]}, "properties": {"title": "KAMMY"}}, {"type": "Feature", "geometry": {"type": "Point", "coordinates": [134.39444444444445, 34.92722222222222]}, "properties": {"title": "LALAH"}}, {"type": "Feature", "geometry": {"type": "Point", "coordinates": [134.1861111111111, 34.88138888888889]}, "properties": {"title": "BRITE"}}, {"type": "Feature", "geometry": {"type": "Point", "coordinates": [133.34083333333334, 34.69194444444444]}, "properties": {"title": "AMURO"}}, {"type": "Feature", "geometry": {"type": "Point", "coordinates": [134.92555555555555, 35.032777777777774]}, "properties": {"title": "WAKIT"}}, {"type": "Feature", "geometry": {"type": "Point", "coordinates": [134.48583333333332, 34.520833333333336]}, "properties": {"title": "WIMPY"}}, {"type": "Feature", "geometry": {"type": "Point", "coordinates": [132.42805555555555, 34.51555555555556]}, "properties": {"title": "BASIL"}}, {"type": "Feature", "geometry": {"type": "Point", "coordinates": [131.31805555555556, 34.06472222222222]}, "properties": {"title": "MINTO"}}, {"type": "Feature", "geometry": {"type": "Point", "coordinates": [130.1783333333333, 33.331388888888895]}, "properties": {"title": "OHGIE"}}, {"type": "Feature", "geometry": {"type": "Point", "coordinates": [134.92555555555555, 35.032777777777774]}, "properties": {"title": "WAKIT"}}, {"type": "Feature", "geometry": {"type": "Point", "coordinates": [134.6675, 34.966944444444444]}, "properties": {"title": "TRIPY"}}, {"type": "Feature", "geometry": {"type": "Point", "coordinates": [134.5336111111111, 34.9325]}, "properties": {"title": "MIMMY"}}, {"type": "Feature", "geometry": {"type": "Point", "coordinates": [134.26527777777778, 34.863055555555555]}, "properties": {"title": "SIMAG"}}, {"type": "Feature", "geometry": {"type": "Point", "coordinates": [134.1552777777778, 34.83444444444444]}, "properties": {"title": "BENES"}}, {"type": "Feature", "geometry": {"type": "Point", "coordinates": [133.835, 34.750277777777775]}, "properties": {"title": "KIBI (OYE)"}}, {"type": "Feature", "geometry": {"type": "Point", "coordinates": [133.0938888888889, 35.53111111111111]}, "properties": {"title": "MIHOU"}}, {"type": "Feature", "geometry": {"type": "Point", "coordinates": [132.77972222222223, 35.50333333333333]}, "properties": {"title": "YAKMO"}}, {"type": "Feature", "geometry": {"type": "Point", "coordinates": [132.71027777777778, 35.49722222222222]}, "properties": {"title": "OPERA"}}, {"type": "Feature", "geometry": {"type": "Point", "coordinates": [129.82916666666665, 34.2625]}, "properties": {"title": "BEETL"}}, {"type": "Feature", "geometry": {"type": "Point", "coordinates": [130.16694444444443, 33.31527777777777]}, "properties": {"title": "KOIMA"}}, {"type": "Feature", "geometry": {"type": "Point", "coordinates": [130.5211111111111, 32.29972222222222]}, "properties": {"title": "SASIK"}}, {"type": "Feature", "geometry": {"type": "Point", "coordinates": [131.095, 30.465555555555554]}, "properties": {"title": "LUKRA"}}, {"type": "Feature", "geometry": {"type": "Point", "coordinates": [129.13083333333333, 34.62166666666667]}, "properties": {"title": "BESNA"}}, {"type": "Feature", "geometry": {"type": "Point", "coordinates": [129.6186111111111, 33.96361111111111]}, "properties": {"title": "FRAIZ"}}, {"type": "Feature", "geometry": {"type": "Point", "coordinates": [129.77694444444447, 33.7475]}, "properties": {"title": "IKI(IKE)"}}, {"type": "Feature", "geometry": {"type": "Point", "coordinates": [140.23916666666665, 34.89138888888889]}, "properties": {"title": "ADDUM"}}, {"type": "Feature", "geometry": {"type": "Point", "coordinates": [140.16777777777776, 34.73222222222223]}, "properties": {"title": "DIIVA"}}, {"type": "Feature", "geometry": {"type": "Point", "coordinates": [139.70388888888888, 34.53472222222222]}, "properties": {"title": "BATIS"}}, {"type": "Feature", "geometry": {"type": "Point", "coordinates": [139.2713888888889, 34.34805555555556]}, "properties": {"title": "KOUGA"}}, {"type": "Feature", "geometry": {"type": "Point", "coordinates": [138.80333333333334, 34.22944444444445]}, "properties": {"title": "CHALK"}}, {"type": "Feature", "geometry": {"type": "Point", "coordinates": [137.92027777777776, 33.99861111111111]}, "properties": {"title": "CELLO"}}, {"type": "Feature", "geometry": {"type": "Point", "coordinates": [136.70638888888888, 33.68944444444444]}, "properties": {"title": "MEIWA"}}, {"type": "Feature", "geometry": {"type": "Point", "coordinates": [136.5686111111111, 33.65333333333333]}, "properties": {"title": "MILOX"}}, {"type": "Feature", "geometry": {"type": "Point", "coordinates": [139.89555555555555, 34.94638888888888]}, "properties": {"title": "UTIBO"}}, {"type": "Feature", "geometry": {"type": "Point", "coordinates": [139.2713888888889, 34.34805555555556]}, "properties": {"title": "KOUGA"}}, {"type": "Feature", "geometry": {"type": "Point", "coordinates": [138.56555555555556, 35.884166666666665]}, "properties": {"title": "CHINO"}}, {"type": "Feature", "geometry": {"type": "Point", "coordinates": [137.81722222222223, 35.850833333333334]}, "properties": {"title": "INASI"}}, {"type": "Feature", "geometry": {"type": "Point", "coordinates": [136.2072222222222, 35.76277777777778]}, "properties": {"title": "TRUGA"}}, {"type": "Feature", "geometry": {"type": "Point", "coordinates": [133.0938888888889, 35.53111111111111]}, "properties": {"title": "MIHOU"}}, {"type": "Feature", "geometry": {"type": "Point", "coordinates": [139.70388888888888, 34.53472222222222]}, "properties": {"title": "BATIS"}}, {"type": "Feature", "geometry": {"type": "Point", "coordinates": [138.80472222222224, 34.53972222222222]}, "properties": {"title": "BRIGE"}}, {"type": "Feature", "geometry": {"type": "Point", "coordinates": [138.385, 34.54222222222222]}, "properties": {"title": "BOKJO"}}, {"type": "Feature", "geometry": {"type": "Point", "coordinates": [138.03416666666666, 34.54333333333333]}, "properties": {"title": "ENSYU"}}, {"type": "Feature", "geometry": {"type": "Point", "coordinates": [136.9636111111111, 34.53861111111111]}, "properties": {"title": "FLUTE"}}, {"type": "Feature", "geometry": {"type": "Point", "coordinates": [134.98388888888888, 34.218333333333334]}, "properties": {"title": "HALKA"}}, {"type": "Feature", "geometry": {"type": "Point", "coordinates": [134.49027777777778, 34.13027777777778]}, "properties": {"title": "YANKS"}}, {"type": "Feature", "geometry": {"type": "Point", "coordinates": [133.79666666666665, 33.91138888888889]}, "properties": {"title": "ZOROH"}}, {"type": "Feature", "geometry": {"type": "Point", "coordinates": [133.38944444444445, 33.78055555555555]}, "properties": {"title": "SUGAR"}}, {"type": "Feature", "geometry": {"type": "Point", "coordinates": [132.97166666666666, 33.644444444444446]}, "properties": {"title": "SPIDE"}}, {"type": "Feature", "geometry": {"type": "Point", "coordinates": [131.70333333333332, 33.22027777777778]}, "properties": {"title": "OOITA"}}, {"type": "Feature", "geometry": {"type": "Point", "coordinates": [129.68944444444446, 32.843333333333334]}, "properties": {"title": "KASTE"}}, {"type": "Feature", "geometry": {"type": "Point", "coordinates": [128.82666666666665, 32.66861111111111]}, "properties": {"title": "FUKUE(FUE)"}}, {"type": "Feature", "geometry": {"type": "Point", "coordinates": [134.70916666666665, 34.001666666666665]}, "properties": {"title": "MIRIO"}}, {"type": "Feature", "geometry": {"type": "Point", "coordinates": [134.50861111111112, 33.91916666666666]}, "properties": {"title": "BECKY"}}, {"type": "Feature", "geometry": {"type": "Point", "coordinates": [134.24305555555554, 33.809444444444445]}, "properties": {"title": "JANGO"}}, {"type": "Feature", "geometry": {"type": "Point", "coordinates": [133.49055555555555, 33.71333333333334]}, "properties": {"title": "ROSIE"}}, {"type": "Feature", "geometry": {"type": "Point", "coordinates": [132.97166666666666, 33.644444444444446]}, "properties": {"title": "SPIDE"}}, {"type": "Feature", "geometry": {"type": "Point", "coordinates": [134.71305555555554, 34.27027777777778]}, "properties": {"title": "AWAJI"}}, {"type": "Feature", "geometry": {"type": "Point", "coordinates": [134.2133333333333, 33.92027777777778]}, "properties": {"title": "SUNNY"}}, {"type": "Feature", "geometry": {"type": "Point", "coordinates": [133.22472222222223, 33.1225]}, "properties": {"title": "SATKI"}}, {"type": "Feature", "geometry": {"type": "Point", "coordinates": [132.9272222222222, 32.84527777777778]}, "properties": {"title": "AGRUM"}}, {"type": "Feature", "geometry": {"type": "Point", "coordinates": [132.25277777777777, 32.20888888888889]}, "properties": {"title": "SIROK"}}, {"type": "Feature", "geometry": {"type": "Point", "coordinates": [139.89555555555555, 34.94638888888888]}, "properties": {"title": "UTIBO"}}, {"type": "Feature", "geometry": {"type": "Point", "coordinates": [138.80472222222224, 34.53972222222222]}, "properties": {"title": "BRIGE"}}, {"type": "Feature", "geometry": {"type": "Point", "coordinates": [135.4413888888889, 33.364444444444445]}, "properties": {"title": "ALBAT"}}, {"type": "Feature", "geometry": {"type": "Point", "coordinates": [134.9972222222222, 33.24888888888889]}, "properties": {"title": "HALON"}}, {"type": "Feature", "geometry": {"type": "Point", "coordinates": [134.64222222222222, 33.1625]}, "properties": {"title": "TURFY"}}, {"type": "Feature", "geometry": {"type": "Point", "coordinates": [134.23416666666665, 33.06194444444444]}, "properties": {"title": "JAKAL"}}, {"type": "Feature", "geometry": {"type": "Point", "coordinates": [133.5663888888889, 32.89861111111111]}, "properties": {"title": "GREEN"}}, {"type": "Feature", "geometry": {"type": "Point", "coordinates": [129.9647222222222, 31.288611111111113]}, "properties": {"title": "KOSHI"}}, {"type": "Feature", "geometry": {"type": "Point", "coordinates": [134.64222222222222, 33.1625]}, "properties": {"title": "TURFY"}}, {"type": "Feature", "geometry": {"type": "Point", "coordinates": [134.08833333333334, 33.189166666666665]}, "properties": {"title": "PANCH"}}, {"type": "Feature", "geometry": {"type": "Point", "coordinates": [129.77694444444447, 33.7475]}, "properties": {"title": "IKI(IKE)"}}, {"type": "Feature", "geometry": {"type": "Point", "coordinates": [129.8402777777778, 33.50333333333333]}, "properties": {"title": "GENKO"}}, {"type": "Feature", "geometry": {"type": "Point", "coordinates": [130.07027777777776, 32.60472222222222]}, "properties": {"title": "GOKYO"}}, {"type": "Feature", "geometry": {"type": "Point", "coordinates": [129.9647222222222, 31.288611111111113]}, "properties": {"title": "KOSHI"}}, {"type": "Feature", "geometry": {"type": "Point", "coordinates": [129.91583333333335, 30.84472222222222]}, "properties": {"title": "MOMPA"}}, {"type": "Feature", "geometry": {"type": "Point", "coordinates": [129.68944444444446, 29.134444444444444]}, "properties": {"title": "KANAH"}}, {"type": "Feature", "geometry": {"type": "Point", "coordinates": [129.58416666666668, 28.44361111111111]}, "properties": {"title": "AMAMI"}}, {"type": "Feature", "geometry": {"type": "Point", "coordinates": [132.1472222222222, 34.07944444444445]}, "properties": {"title": "MARCO"}}, {"type": "Feature", "geometry": {"type": "Point", "coordinates": [131.7288888888889, 34.121944444444445]}, "properties": {"title": "HASSY"}}, {"type": "Feature", "geometry": {"type": "Point", "coordinates": [131.16166666666666, 34.176944444444445]}, "properties": {"title": "CARRY"}}, {"type": "Feature", "geometry": {"type": "Point", "coordinates": [131.01611111111112, 34.19083333333333]}, "properties": {"title": "STOUT"}}, {"type": "Feature", "geometry": {"type": "Point", "coordinates": [130.07527777777779, 29.57472222222222]}, "properties": {"title": "SWANO"}}, {"type": "Feature", "geometry": {"type": "Point", "coordinates": [129.37694444444446, 28.98888888888889]}, "properties": {"title": "ANOXA"}}, {"type": "Feature", "geometry": {"type": "Point", "coordinates": [127.615, 27.488055555555558]}, "properties": {"title": "YURIX"}}, {"type": "Feature", "geometry": {"type": "Point", "coordinates": [126.2075, 26.14388888888889]}, "properties": {"title": "KAORU"}}, {"type": "Feature", "geometry": {"type": "Point", "coordinates": [127.615, 27.488055555555558]}, "properties": {"title": "YURIX"}}, {"type": "Feature", "geometry": {"type": "Point", "coordinates": [127.09388888888888, 25.598055555555554]}, "properties": {"title": "AMMEK"}}, {"type": "Feature", "geometry": {"type": "Point", "coordinates": [139.5013888888889, 35.48444444444444]}, "properties": {"title": "YANAG"}}, {"type": "Feature", "geometry": {"type": "Point", "coordinates": [139.17333333333332, 35.4475]}, "properties": {"title": "TANZA"}}, {"type": "Feature", "geometry": {"type": "Point", "coordinates": [138.58833333333334, 35.380833333333335]}, "properties": {"title": "KOGEN"}}, {"type": "Feature", "geometry": {"type": "Point", "coordinates": [137.61722222222224, 35.26361111111111]}, "properties": {"title": "ENNAR"}}, {"type": "Feature", "geometry": {"type": "Point", "coordinates": [137.03333333333333, 35.186388888888885]}, "properties": {"title": "KOMAK"}}, {"type": "Feature", "geometry": {"type": "Point", "coordinates": [135.82611111111112, 35.01694444444444]}, "properties": {"title": "OTSU(CUE)"}}, {"type": "Feature", "geometry": {"type": "Point", "coordinates": [135.36222222222221, 34.93055555555555]}, "properties": {"title": "SANDA"}}, {"type": "Feature", "geometry": {"type": "Point", "coordinates": [134.99555555555554, 34.85861111111111]}, "properties": {"title": "HYOGO"}}, {"type": "Feature", "geometry": {"type": "Point", "coordinates": [134.64666666666665, 34.79277777777778]}, "properties": {"title": "ASANO"}}, {"type": "Feature", "geometry": {"type": "Point", "coordinates": [134.45, 34.755]}, "properties": {"title": "OLIVE"}}, {"type": "Feature", "geometry": {"type": "Point", "coordinates": [134.21499999999997, 34.71]}, "properties": {"title": "BIZEN"}}, {"type": "Feature", "geometry": {"type": "Point", "coordinates": [134.015, 34.671388888888885]}, "properties": {"title": "PIONE"}}, {"type": "Feature", "geometry": {"type": "Point", "coordinates": [133.61499999999998, 34.547777777777775]}, "properties": {"title": "DANGO"}}, {"type": "Feature", "geometry": {"type": "Point", "coordinates": [133.3836111111111, 34.47166666666667]}, "properties": {"title": "WASYU"}}, {"type": "Feature", "geometry": {"type": "Point", "coordinates": [133.17805555555555, 34.407222222222224]}, "properties": {"title": "BINGO"}}, {"type": "Feature", "geometry": {"type": "Point", "coordinates": [132.8838888888889, 34.31333333333333]}, "properties": {"title": "BAMBO"}}, {"type": "Feature", "geometry": {"type": "Point", "coordinates": [132.55555555555557, 34.20944444444445]}, "properties": {"title": "ONDOC"}}, {"type": "Feature", "geometry": {"type": "Point", "coordinates": [132.1472222222222, 34.07944444444445]}, "properties": {"title": "MARCO"}}, {"type": "Feature", "geometry": {"type": "Point", "coordinates": [131.76, 33.99305555555556]}, "properties": {"title": "CLIPA"}}, {"type": "Feature", "geometry": {"type": "Point", "coordinates": [131.22583333333333, 33.87166666666667]}, "properties": {"title": "HIZET"}}, {"type": "Feature", "geometry": {"type": "Point", "coordinates": [130.48722222222221, 33.69944444444444]}, "properties": {"title": "ACTIE"}}, {"type": "Feature", "geometry": {"type": "Point", "coordinates": [129.65305555555557, 33.20611111111111]}, "properties": {"title": "ISAKY"}}, {"type": "Feature", "geometry": {"type": "Point", "coordinates": [134.015, 34.671388888888885]}, "properties": {"title": "PIONE"}}, {"type": "Feature", "geometry": {"type": "Point", "coordinates": [133.73944444444444, 34.6275]}, "properties": {"title": "SOUJA"}}, {"type": "Feature", "geometry": {"type": "Point", "coordinates": [132.35944444444445, 34.40694444444444]}, "properties": {"title": "CARPS"}}, {"type": "Feature", "geometry": {"type": "Point", "coordinates": [131.9, 34.33277777777778]}, "properties": {"title": "LAKAN"}}, {"type": "Feature", "geometry": {"type": "Point", "coordinates": [131.01611111111112, 34.19083333333333]}, "properties": {"title": "STOUT"}}, {"type": "Feature", "geometry": {"type": "Point", "coordinates": [134.92555555555555, 35.032777777777774]}, "properties": {"title": "WAKIT"}}, {"type": "Feature", "geometry": {"type": "Point", "coordinates": [134.64666666666665, 34.79277777777778]}, "properties": {"title": "ASANO"}}, {"type": "Feature", "geometry": {"type": "Point", "coordinates": [134.45388888888888, 34.60055555555556]}, "properties": {"title": "AYAME"}}, {"type": "Feature", "geometry": {"type": "Point", "coordinates": [134.28250000000003, 34.42833333333333]}, "properties": {"title": "SHION"}}, {"type": "Feature", "geometry": {"type": "Point", "coordinates": [134.125, 34.24861111111111]}, "properties": {"title": "HIBIS"}}, {"type": "Feature", "geometry": {"type": "Point", "coordinates": [133.92138888888888, 34.015]}, "properties": {"title": "OBOKE"}}, {"type": "Feature", "geometry": {"type": "Point", "coordinates": [133.82083333333333, 33.81805555555556]}, "properties": {"title": "POPPY"}}, {"type": "Feature", "geometry": {"type": "Point", "coordinates": [132.8838888888889, 34.31333333333333]}, "properties": {"title": "BAMBO"}}, {"type": "Feature", "geometry": {"type": "Point", "coordinates": [132.8375, 34.17388888888889]}, "properties": {"title": "KINOE"}}, {"type": "Feature", "geometry": {"type": "Point", "coordinates": [132.80305555555557, 34.071111111111115]}, "properties": {"title": "ITUKI"}}, {"type": "Feature", "geometry": {"type": "Point", "coordinates": [132.1472222222222, 34.07944444444445]}, "properties": {"title": "MARCO"}}, {"type": "Feature", "geometry": {"type": "Point", "coordinates": [131.785, 34.019999999999996]}, "properties": {"title": "DEMIZ"}}, {"type": "Feature", "geometry": {"type": "Point", "coordinates": [131.68694444444444, 34.00361111111111]}, "properties": {"title": "KATTA"}}, {"type": "Feature", "geometry": {"type": "Point", "coordinates": [131.2836111111111, 33.93555555555555]}, "properties": {"title": "UBE(UBE)"}}, {"type": "Feature", "geometry": {"type": "Point", "coordinates": [132.1472222222222, 34.07944444444445]}, "properties": {"title": "MARCO"}}, {"type": "Feature", "geometry": {"type": "Point", "coordinates": [131.75694444444446, 34.00277777777778]}, "properties": {"title": "SAZOH"}}, {"type": "Feature", "geometry": {"type": "Point", "coordinates": [131.40916666666666, 33.933611111111105]}, "properties": {"title": "IWAYA"}}, {"type": "Feature", "geometry": {"type": "Point", "coordinates": [131.21444444444444, 33.89416666666666]}, "properties": {"title": "ASARI"}}, {"type": "Feature", "geometry": {"type": "Point", "coordinates": [131.02944444444447, 33.85666666666667]}, "properties": {"title": "SUOH(SWE)"}}, {"type": "Feature", "geometry": {"type": "Point", "coordinates": [137.03333333333333, 35.186388888888885]}, "properties": {"title": "KOMAK"}}, {"type": "Feature", "geometry": {"type": "Point", "coordinates": [136.16055555555556, 35.14361111111111]}, "properties": {"title": "TANUK"}}, {"type": "Feature", "geometry": {"type": "Point", "coordinates": [135.28083333333333, 35.09444444444445]}, "properties": {"title": "GINJI"}}, {"type": "Feature", "geometry": {"type": "Point", "coordinates": [133.0938888888889, 35.53111111111111]}, "properties": {"title": "MIHOU"}}, {"type": "Feature", "geometry": {"type": "Point", "coordinates": [133.1497222222222, 35.45388888888889]}, "properties": {"title": "DULOK"}}, {"type": "Feature", "geometry": {"type": "Point", "coordinates": [133.73944444444444, 34.6275]}, "properties": {"title": "SOUJA"}}, {"type": "Feature", "geometry": {"type": "Point", "coordinates": [133.62194444444447, 34.49777777777778]}, "properties": {"title": "INOOK"}}, {"type": "Feature", "geometry": {"type": "Point", "coordinates": [133.4163888888889, 34.25277777777778]}, "properties": {"title": "TAKMA"}}, {"type": "Feature", "geometry": {"type": "Point", "coordinates": [132.8375, 34.17388888888889]}, "properties": {"title": "KINOE"}}, {"type": "Feature", "geometry": {"type": "Point", "coordinates": [135.07638888888889, 31.716944444444444]}, "properties": {"title": "YULIA"}}, {"type": "Feature", "geometry": {"type": "Point", "coordinates": [131.81083333333333, 29.8175]}, "properties": {"title": "TONAR"}}, {"type": "Feature", "geometry": {"type": "Point", "coordinates": [127.42083333333333, 27.816111111111113]}, "properties": {"title": "GAKIA"}}, {"type": "Feature", "geometry": {"type": "Point", "coordinates": [139.5875, 35.255833333333335]}, "properties": {"title": "KOSKA"}}, {"type": "Feature", "geometry": {"type": "Point", "coordinates": [138.85611111111112, 35.013888888888886]}, "properties": {"title": "DALMA"}}, {"type": "Feature", "geometry": {"type": "Point", "coordinates": [138.19333333333333, 34.79694444444444]}, "properties": {"title": "SHIZUOKA(SZE)"}}, {"type": "Feature", "geometry": {"type": "Point", "coordinates": [137.68055555555554, 34.74777777777778]}, "properties": {"title": "GAKKI"}}, {"type": "Feature", "geometry": {"type": "Point", "coordinates": [137.54305555555555, 34.84111111111111]}, "properties": {"title": "KIKOL"}}, {"type": "Feature", "geometry": {"type": "Point", "coordinates": [137.22305555555556, 35.056666666666665]}, "properties": {"title": "MORIZ"}}, {"type": "Feature", "geometry": {"type": "Point", "coordinates": [137.03333333333333, 35.186388888888885]}, "properties": {"title": "KOMAK"}}, {"type": "Feature", "geometry": {"type": "Point", "coordinates": [136.62694444444446, 35.301944444444445]}, "properties": {"title": "OGAKI"}}, {"type": "Feature", "geometry": {"type": "Point", "coordinates": [137.68055555555554, 34.74777777777778]}, "properties": {"title": "GAKKI"}}, {"type": "Feature", "geometry": {"type": "Point", "coordinates": [137.03444444444443, 34.51138888888889]}, "properties": {"title": "HANTO"}}, {"type": "Feature", "geometry": {"type": "Point", "coordinates": [141.1627777777778, 37.933611111111105]}, "properties": {"title": "JUGEM"}}, {"type": "Feature", "geometry": {"type": "Point", "coordinates": [141.09083333333334, 37.75194444444445]}, "properties": {"title": "KUKUI"}}, {"type": "Feature", "geometry": {"type": "Point", "coordinates": [140.9572222222222, 37.4125]}, "properties": {"title": "BONGO"}}, {"type": "Feature", "geometry": {"type": "Point", "coordinates": [140.75444444444443, 36.888333333333335]}, "properties": {"title": "SHELY"}}, {"type": "Feature", "geometry": {"type": "Point", "coordinates": [140.63222222222223, 36.56888888888889]}, "properties": {"title": "LOTUS"}}, {"type": "Feature", "geometry": {"type": "Point", "coordinates": [140.53805555555556, 36.32055555555556]}, "properties": {"title": "SWAMP"}}, {"type": "Feature", "geometry": {"type": "Point", "coordinates": [140.58916666666667, 36.20444444444445]}, "properties": {"title": "COMET"}}, {"type": "Feature", "geometry": {"type": "Point", "coordinates": [140.67944444444444, 35.99944444444444]}, "properties": {"title": "SUIGO"}}, {"type": "Feature", "geometry": {"type": "Point", "coordinates": [141.19416666666666, 35.998333333333335]}, "properties": {"title": "DOVER"}}, {"type": "Feature", "geometry": {"type": "Point", "coordinates": [141.19416666666666, 35.79666666666667]}, "properties": {"title": "AKTUS"}}, {"type": "Feature", "geometry": {"type": "Point", "coordinates": [140.86416666666665, 35.84916666666667]}, "properties": {"title": "MELON"}}, {"type": "Feature", "geometry": {"type": "Point", "coordinates": [137.8711111111111, 39.18527777777778]}, "properties": {"title": "CLALA"}}, {"type": "Feature", "geometry": {"type": "Point", "coordinates": [138.2902777777778, 38.816944444444445]}, "properties": {"title": "REALU"}}, {"type": "Feature", "geometry": {"type": "Point", "coordinates": [139.1875, 38.009166666666665]}, "properties": {"title": "SEILO"}}, {"type": "Feature", "geometry": {"type": "Point", "coordinates": [139.53666666666666, 37.68805555555555]}, "properties": {"title": "KAMOH"}}, {"type": "Feature", "geometry": {"type": "Point", "coordinates": [140.08055555555555, 37.33444444444444]}, "properties": {"title": "RINOA"}}, {"type": "Feature", "geometry": {"type": "Point", "coordinates": [140.44805555555556, 37.092222222222226]}, "properties": {"title": "LANAI"}}, {"type": "Feature", "geometry": {"type": "Point", "coordinates": [140.75444444444443, 36.888333333333335]}, "properties": {"title": "SHELY"}}, {"type": "Feature", "geometry": {"type": "Point", "coordinates": [141.79861111111111, 41.503055555555555]}, "properties": {"title": "LARCH"}}, {"type": "Feature", "geometry": {"type": "Point", "coordinates": [141.1627777777778, 37.933611111111105]}, "properties": {"title": "JUGEM"}}, {"type": "Feature", "geometry": {"type": "Point", "coordinates": [139.53666666666666, 37.68805555555555]}, "properties": {"title": "KAMOH"}}, {"type": "Feature", "geometry": {"type": "Point", "coordinates": [138.2902777777778, 38.816944444444445]}, "properties": {"title": "REALU"}}, {"type": "Feature", "geometry": {"type": "Point", "coordinates": [138.40972222222223, 38.06583333333333]}, "properties": {"title": "GOLDO"}}, {"type": "Feature", "geometry": {"type": "Point", "coordinates": [138.5552777777778, 37.12583333333333]}, "properties": {"title": "FINGA"}}, {"type": "Feature", "geometry": {"type": "Point", "coordinates": [140.4013888888889, 36.92722222222222]}, "properties": {"title": "GENJI"}}, {"type": "Feature", "geometry": {"type": "Point", "coordinates": [140.0038888888889, 37.03861111111111]}, "properties": {"title": "SYOEN"}}, {"type": "Feature", "geometry": {"type": "Point", "coordinates": [139.80666666666667, 37.09305555555556]}, "properties": {"title": "WAKOH"}}, {"type": "Feature", "geometry": {"type": "Point", "coordinates": [139.51166666666666, 37.17388888888889]}, "properties": {"title": "DANDY"}}, {"type": "Feature", "geometry": {"type": "Point", "coordinates": [138.74194444444444, 37.38027777777778]}, "properties": {"title": "KOHAK"}}, {"type": "Feature", "geometry": {"type": "Point", "coordinates": [137.93138888888888, 37.59277777777778]}, "properties": {"title": "HISUI"}}, {"type": "Feature", "geometry": {"type": "Point", "coordinates": [138.40972222222223, 38.06583333333333]}, "properties": {"title": "GOLDO"}}, {"type": "Feature", "geometry": {"type": "Point", "coordinates": [137.93138888888888, 37.59277777777778]}, "properties": {"title": "HISUI"}}, {"type": "Feature", "geometry": {"type": "Point", "coordinates": [137.76694444444445, 37.54222222222222]}, "properties": {"title": "GENGE"}}, {"type": "Feature", "geometry": {"type": "Point", "coordinates": [136.96305555555554, 37.29]}, "properties": {"title": "NOTO(NTE)"}}, {"type": "Feature", "geometry": {"type": "Point", "coordinates": [139.99277777777777, 39.31944444444445]}, "properties": {"title": "YAYOI"}}, {"type": "Feature", "geometry": {"type": "Point", "coordinates": [139.58666666666667, 38.69888888888889]}, "properties": {"title": "KENSI"}}, {"type": "Feature", "geometry": {"type": "Point", "coordinates": [140.32416666666666, 39.91583333333333]}, "properties": {"title": "MAGGY"}}, {"type": "Feature", "geometry": {"type": "Point", "coordinates": [140.2336111111111, 39.28611111111111]}, "properties": {"title": "CHOKA"}}, {"type": "Feature", "geometry": {"type": "Point", "coordinates": [140.29194444444445, 38.86888888888889]}, "properties": {"title": "HOKUU"}}, {"type": "Feature", "geometry": {"type": "Point", "coordinates": [140.45222222222222, 38.17222222222222]}, "properties": {"title": "ZUNDA"}}, {"type": "Feature", "geometry": {"type": "Point", "coordinates": [140.63555555555556, 37.7475]}, "properties": {"title": "RUBIS"}}, {"type": "Feature", "geometry": {"type": "Point", "coordinates": [128.2386111111111, 26.391666666666666]}, "properties": {"title": "YUSKE"}}, {"type": "Feature", "geometry": {"type": "Point", "coordinates": [133.73944444444444, 34.6275]}, "properties": {"title": "SOUJA"}}, {"type": "Feature", "geometry": {"type": "Point", "coordinates": [132.77972222222223, 35.50333333333333]}, "properties": {"title": "YAKMO"}}, {"type": "Feature", "geometry": {"type": "Point", "coordinates": [132.69333333333333, 35.58111111111111]}, "properties": {"title": "STAGE"}}, {"type": "Feature", "geometry": {"type": "Point", "coordinates": [138.03055555555557, 34.714444444444446]}, "properties": {"title": "SHOOT"}}, {"type": "Feature", "geometry": {"type": "Point", "coordinates": [136.95805555555555, 34.70472222222222]}, "properties": {"title": "KOHWA"}}, {"type": "Feature", "geometry": {"type": "Point", "coordinates": [136.18138888888888, 34.58777777777778]}, "properties": {"title": "LABEL"}}, {"type": "Feature", "geometry": {"type": "Point", "coordinates": [134.87305555555557, 34.38138888888889]}, "properties": {"title": "PROOF"}}, {"type": "Feature", "geometry": {"type": "Point", "coordinates": [133.87583333333333, 34.16722222222222]}, "properties": {"title": "KOMPI"}}, {"type": "Feature", "geometry": {"type": "Point", "coordinates": [133.45805555555555, 34.040277777777774]}, "properties": {"title": "SAKAI"}}, {"type": "Feature", "geometry": {"type": "Point", "coordinates": [133.21444444444444, 33.973888888888894]}, "properties": {"title": "MALTA"}}, {"type": "Feature", "geometry": {"type": "Point", "coordinates": [133.0938888888889, 35.53111111111111]}, "properties": {"title": "MIHOU"}}, {"type": "Feature", "geometry": {"type": "Point", "coordinates": [132.86027777777778, 36.705000000000005]}, "properties": {"title": "KAPPA"}}, {"type": "Feature", "geometry": {"type": "Point", "coordinates": [134.51805555555558, 35.91694444444444]}, "properties": {"title": "SAKYU"}}, {"type": "Feature", "geometry": {"type": "Point", "coordinates": [133.76111111111112, 36.281666666666666]}, "properties": {"title": "DISSH"}}, {"type": "Feature", "geometry": {"type": "Point", "coordinates": [132.86027777777778, 36.705000000000005]}, "properties": {"title": "KAPPA"}}, {"type": "Feature", "geometry": {"type": "Point", "coordinates": [134.99694444444444, 34.611111111111114]}, "properties": {"title": "MAIKO"}}, {"type": "Feature", "geometry": {"type": "Point", "coordinates": [134.84194444444447, 34.53583333333333]}, "properties": {"title": "WENDY"}}, {"type": "Feature", "geometry": {"type": "Point", "coordinates": [134.7336111111111, 34.46]}, "properties": {"title": "GLORY"}}, {"type": "Feature", "geometry": {"type": "Point", "coordinates": [134.45805555555555, 34.268055555555556]}, "properties": {"title": "TANTA"}}, {"type": "Feature", "geometry": {"type": "Point", "coordinates": [133.91222222222223, 33.88305555555556]}, "properties": {"title": "BUGGY"}}, {"type": "Feature", "geometry": {"type": "Point", "coordinates": [133.82083333333333, 33.81805555555556]}, "properties": {"title": "POPPY"}}, {"type": "Feature", "geometry": {"type": "Point", "coordinates": [133.19583333333333, 33.25555555555555]}, "properties": {"title": "SUKMO"}}, {"type": "Feature", "geometry": {"type": "Point", "coordinates": [128.99916666666667, 26.25111111111111]}, "properties": {"title": "TETTA"}}, {"type": "Feature", "geometry": {"type": "Point", "coordinates": [136.6052777777778, 39.74777777777778]}, "properties": {"title": "EKVIK"}}, {"type": "Feature", "geometry": {"type": "Point", "coordinates": [138.03250000000003, 38.42638888888889]}, "properties": {"title": "HANAB"}}, {"type": "Feature", "geometry": {"type": "Point", "coordinates": [138.40972222222223, 38.06583333333333]}, "properties": {"title": "GOLDO"}}, {"type": "Feature", "geometry": {"type": "Point", "coordinates": [134.31666666666666, 34.153055555555554]}, "properties": {"title": "BERTH"}}, {"type": "Feature", "geometry": {"type": "Point", "coordinates": [133.89749999999998, 34.109722222222224]}, "properties": {"title": "RANDY"}}, {"type": "Feature", "geometry": {"type": "Point", "coordinates": [132.92527777777778, 33.85277777777778]}, "properties": {"title": "SALTY"}}, {"type": "Feature", "geometry": {"type": "Point", "coordinates": [128.82666666666665, 32.66861111111111]}, "properties": {"title": "FUKUE(FUE)"}}, {"type": "Feature", "geometry": {"type": "Point", "coordinates": [132.92527777777778, 33.85277777777778]}, "properties": {"title": "SALTY"}}, {"type": "Feature", "geometry": {"type": "Point", "coordinates": [131.70333333333332, 33.22027777777778]}, "properties": {"title": "OOITA"}}, {"type": "Feature", "geometry": {"type": "Point", "coordinates": [138.40972222222223, 38.06583333333333]}, "properties": {"title": "GOLDO"}}, {"type": "Feature", "geometry": {"type": "Point", "coordinates": [136.72083333333333, 37.099444444444444]}, "properties": {"title": "NESKO"}}, {"type": "Feature", "geometry": {"type": "Point", "coordinates": [136.05666666666667, 36.705555555555556]}, "properties": {"title": "SQUID"}}, {"type": "Feature", "geometry": {"type": "Point", "coordinates": [135.2225, 36.200833333333335]}, "properties": {"title": "CHILY"}}, {"type": "Feature", "geometry": {"type": "Point", "coordinates": [134.82555555555555, 35.77861111111111]}, "properties": {"title": "PEPAR"}}, {"type": "Feature", "geometry": {"type": "Point", "coordinates": [134.26222222222222, 35.16972222222222]}, "properties": {"title": "SPICE"}}, {"type": "Feature", "geometry": {"type": "Point", "coordinates": [134.0638888888889, 34.952222222222225]}, "properties": {"title": "SAEKI"}}, {"type": "Feature", "geometry": {"type": "Point", "coordinates": [134.13444444444443, 34.511944444444445]}, "properties": {"title": "ALISA"}}, {"type": "Feature", "geometry": {"type": "Point", "coordinates": [134.0638888888889, 34.952222222222225]}, "properties": {"title": "SAEKI"}}, {"type": "Feature", "geometry": {"type": "Point", "coordinates": [134.01777777777778, 35.18138888888889]}, "properties": {"title": "TONBI"}}, {"type": "Feature", "geometry": {"type": "Point", "coordinates": [133.0938888888889, 35.53111111111111]}, "properties": {"title": "MIHOU"}}, {"type": "Feature", "geometry": {"type": "Point", "coordinates": [137.8711111111111, 39.18527777777778]}, "properties": {"title": "CLALA"}}, {"type": "Feature", "geometry": {"type": "Point", "coordinates": [137.8477777777778, 38.88916666666667]}, "properties": {"title": "HAIJI"}}, {"type": "Feature", "geometry": {"type": "Point", "coordinates": [139.23916666666665, 37.63111111111111]}, "properties": {"title": "SANJO"}}, {"type": "Feature", "geometry": {"type": "Point", "coordinates": [139.29638888888888, 37.47888888888889]}, "properties": {"title": "GOSEN"}}, {"type": "Feature", "geometry": {"type": "Point", "coordinates": [139.35083333333333, 37.33388888888889]}, "properties": {"title": "TAGOK"}}, {"type": "Feature", "geometry": {"type": "Point", "coordinates": [139.48472222222222, 36.97361111111111]}, "properties": {"title": "MAUKA"}}, {"type": "Feature", "geometry": {"type": "Point", "coordinates": [139.6627777777778, 36.49]}, "properties": {"title": "KALON"}}, {"type": "Feature", "geometry": {"type": "Point", "coordinates": [139.6988888888889, 36.39111111111111]}, "properties": {"title": "AKAGI"}}, {"type": "Feature", "geometry": {"type": "Point", "coordinates": [139.8525, 36.279444444444444]}, "properties": {"title": "JYOSO"}}, {"type": "Feature", "geometry": {"type": "Point", "coordinates": [140.20555555555555, 36.02111111111111]}, "properties": {"title": "COLOR"}}, {"type": "Feature", "geometry": {"type": "Point", "coordinates": [139.6627777777778, 36.49]}, "properties": {"title": "KALON"}}, {"type": "Feature", "geometry": {"type": "Point", "coordinates": [139.60083333333333, 35.89111111111111]}, "properties": {"title": "YONOH"}}, {"type": "Feature", "geometry": {"type": "Point", "coordinates": [139.5263888888889, 35.14611111111111]}, "properties": {"title": "JYOGA"}}, {"type": "Feature", "geometry": {"type": "Point", "coordinates": [139.6136111111111, 36.39611111111111]}, "properties": {"title": "SANOH"}}, {"type": "Feature", "geometry": {"type": "Point", "coordinates": [139.60083333333333, 35.89111111111111]}, "properties": {"title": "YONOH"}}, {"type": "Feature", "geometry": {"type": "Point", "coordinates": [137.8477777777778, 38.88916666666667]}, "properties": {"title": "HAIJI"}}, {"type": "Feature", "geometry": {"type": "Point", "coordinates": [137.5388888888889, 39.48777777777778]}, "properties": {"title": "MEDIO"}}, {"type": "Feature", "geometry": {"type": "Point", "coordinates": [136.95805555555555, 34.70472222222222]}, "properties": {"title": "KOHWA"}}, {"type": "Feature", "geometry": {"type": "Point", "coordinates": [135.82611111111112, 35.01694444444444]}, "properties": {"title": "OTSU(CUE)"}}, {"type": "Feature", "geometry": {"type": "Point", "coordinates": [135.30027777777778, 35.11694444444444]}, "properties": {"title": "ROKKO"}}, {"type": "Feature", "geometry": {"type": "Point", "coordinates": [134.48444444444442, 35.270833333333336]}, "properties": {"title": "TOZAN"}}, {"type": "Feature", "geometry": {"type": "Point", "coordinates": [134.15333333333334, 35.33277777777778]}, "properties": {"title": "TSUNO"}}, {"type": "Feature", "geometry": {"type": "Point", "coordinates": [133.2763888888889, 35.49777777777778]}, "properties": {"title": "ADLEB"}}, {"type": "Feature", "geometry": {"type": "Point", "coordinates": [133.0938888888889, 35.53111111111111]}, "properties": {"title": "MIHOU"}}, {"type": "Feature", "geometry": {"type": "Point", "coordinates": [132.69333333333333, 35.58111111111111]}, "properties": {"title": "STAGE"}}, {"type": "Feature", "geometry": {"type": "Point", "coordinates": [138.40972222222223, 38.06583333333333]}, "properties": {"title": "GOLDO"}}, {"type": "Feature", "geometry": {"type": "Point", "coordinates": [136.90194444444444, 36.821111111111115]}, "properties": {"title": "HIMMY"}}, {"type": "Feature", "geometry": {"type": "Point", "coordinates": [136.40416666666667, 36.396388888888886]}, "properties": {"title": "KOMATSU(KMC)"}}, {"type": "Feature", "geometry": {"type": "Point", "coordinates": [135.57583333333332, 35.64055555555556]}, "properties": {"title": "SOTOM"}}, {"type": "Feature", "geometry": {"type": "Point", "coordinates": [134.92555555555555, 35.032777777777774]}, "properties": {"title": "WAKIT"}}, {"type": "Feature", "geometry": {"type": "Point", "coordinates": [136.40416666666667, 36.396388888888886]}, "properties": {"title": "KOMATSU(KMC)"}}, {"type": "Feature", "geometry": {"type": "Point", "coordinates": [135.64249999999998, 35.51916666666666]}, "properties": {"title": "MENOU"}}, {"type": "Feature", "geometry": {"type": "Point", "coordinates": [135.30027777777778, 35.11694444444444]}, "properties": {"title": "ROKKO"}}, {"type": "Feature", "geometry": {"type": "Point", "coordinates": [133.0938888888889, 35.53111111111111]}, "properties": {"title": "MIHOU"}}, {"type": "Feature", "geometry": {"type": "Point", "coordinates": [133.5863888888889, 35.01444444444444]}, "properties": {"title": "YUBAR"}}, {"type": "Feature", "geometry": {"type": "Point", "coordinates": [133.835, 34.750277777777775]}, "properties": {"title": "KIBI (OYE)"}}, {"type": "Feature", "geometry": {"type": "Point", "coordinates": [132.11305555555555, 33.46222222222222]}, "properties": {"title": "SHONO"}}, {"type": "Feature", "geometry": {"type": "Point", "coordinates": [131.70333333333332, 33.22027777777778]}, "properties": {"title": "OOITA"}}, {"type": "Feature", "geometry": {"type": "Point", "coordinates": [131.4922222222222, 33.12694444444445]}, "properties": {"title": "WOODY"}}, {"type": "Feature", "geometry": {"type": "Point", "coordinates": [131.24694444444444, 33.01611111111111]}, "properties": {"title": "ASONO"}}, {"type": "Feature", "geometry": {"type": "Point", "coordinates": [131.15944444444446, 32.977222222222224]}, "properties": {"title": "KAZMA"}}, {"type": "Feature", "geometry": {"type": "Point", "coordinates": [130.4711111111111, 32.863055555555555]}, "properties": {"title": "TAIME"}}, {"type": "Feature", "geometry": {"type": "Point", "coordinates": [135.24305555555554, 34.218611111111116]}, "properties": {"title": "KAINA"}}, {"type": "Feature", "geometry": {"type": "Point", "coordinates": [134.70916666666665, 34.001666666666665]}, "properties": {"title": "MIRIO"}}, {"type": "Feature", "geometry": {"type": "Point", "coordinates": [133.97944444444445, 33.92722222222222]}, "properties": {"title": "KAZRA"}}, {"type": "Feature", "geometry": {"type": "Point", "coordinates": [133.79666666666665, 33.91138888888889]}, "properties": {"title": "ZOROH"}}, {"type": "Feature", "geometry": {"type": "Point", "coordinates": [133.53972222222222, 33.888888888888886]}, "properties": {"title": "RIVER"}}, {"type": "Feature", "geometry": {"type": "Point", "coordinates": [133.17416666666665, 33.85583333333334]}, "properties": {"title": "JINBE"}}, {"type": "Feature", "geometry": {"type": "Point", "coordinates": [132.25277777777777, 32.20888888888889]}, "properties": {"title": "SIROK"}}, {"type": "Feature", "geometry": {"type": "Point", "coordinates": [132.03444444444443, 32.04611111111111]}, "properties": {"title": "RYUGU"}}, {"type": "Feature", "geometry": {"type": "Point", "coordinates": [135.24305555555554, 34.218611111111116]}, "properties": {"title": "KAINA"}}, {"type": "Feature", "geometry": {"type": "Point", "coordinates": [134.54194444444445, 33.60277777777778]}, "properties": {"title": "KAIFU"}}, {"type": "Feature", "geometry": {"type": "Point", "coordinates": [136.19444444444446, 34.192499999999995]}, "properties": {"title": "NATCH"}}, {"type": "Feature", "geometry": {"type": "Point", "coordinates": [135.045, 33.68611111111111]}, "properties": {"title": "VERDI"}}, {"type": "Feature", "geometry": {"type": "Point", "coordinates": [134.05, 33.70583333333334]}, "properties": {"title": "TARBY"}}, {"type": "Feature", "geometry": {"type": "Point", "coordinates": [133.18305555555554, 33.51222222222222]}, "properties": {"title": "KASLY"}}, {"type": "Feature", "geometry": {"type": "Point", "coordinates": [132.48472222222222, 33.35138888888889]}, "properties": {"title": "DONAR"}}, {"type": "Feature", "geometry": {"type": "Point", "coordinates": [131.70333333333332, 33.22027777777778]}, "properties": {"title": "OOITA"}}, {"type": "Feature", "geometry": {"type": "Point", "coordinates": [134.05, 33.70583333333334]}, "properties": {"title": "TARBY"}}, {"type": "Feature", "geometry": {"type": "Point", "coordinates": [133.49055555555555, 33.71333333333334]}, "properties": {"title": "ROSIE"}}, {"type": "Feature", "geometry": {"type": "Point", "coordinates": [137.11388888888888, 33.700833333333335]}, "properties": {"title": "ISEBI"}}, {"type": "Feature", "geometry": {"type": "Point", "coordinates": [136.9013888888889, 33.66111111111111]}, "properties": {"title": "KIHOH"}}, {"type": "Feature", "geometry": {"type": "Point", "coordinates": [135.32888888888888, 33.467777777777776]}, "properties": {"title": "KISEI"}}, {"type": "Feature", "geometry": {"type": "Point", "coordinates": [134.9972222222222, 33.48277777777778]}, "properties": {"title": "PADOC"}}, {"type": "Feature", "geometry": {"type": "Point", "coordinates": [133.49055555555555, 33.71333333333334]}, "properties": {"title": "ROSIE"}}, {"type": "Feature", "geometry": {"type": "Point", "coordinates": [138.4802777777778, 37.603611111111114]}, "properties": {"title": "TERAD"}}, {"type": "Feature", "geometry": {"type": "Point", "coordinates": [137.88472222222222, 37.26]}, "properties": {"title": "HAKBA"}}, {"type": "Feature", "geometry": {"type": "Point", "coordinates": [137.76944444444445, 37.198611111111106]}, "properties": {"title": "GORYU"}}, {"type": "Feature", "geometry": {"type": "Point", "coordinates": [137.49249999999998, 37.038333333333334]}, "properties": {"title": "IKUJI"}}, {"type": "Feature", "geometry": {"type": "Point", "coordinates": [137.13166666666666, 36.81916666666667]}, "properties": {"title": "URUSI"}}, {"type": "Feature", "geometry": {"type": "Point", "coordinates": [136.99055555555555, 36.739444444444445]}, "properties": {"title": "IMIZU"}}, {"type": "Feature", "geometry": {"type": "Point", "coordinates": [136.7536111111111, 36.605000000000004]}, "properties": {"title": "OYABE"}}, {"type": "Feature", "geometry": {"type": "Point", "coordinates": [135.58416666666668, 36.19222222222222]}, "properties": {"title": "SONBU"}}, {"type": "Feature", "geometry": {"type": "Point", "coordinates": [134.51805555555558, 35.91694444444444]}, "properties": {"title": "SAKYU"}}, {"type": "Feature", "geometry": {"type": "Point", "coordinates": [133.0938888888889, 35.53111111111111]}, "properties": {"title": "MIHOU"}}, {"type": "Feature", "geometry": {"type": "Point", "coordinates": [132.86499999999998, 35.17944444444444]}, "properties": {"title": "KYOKA"}}, {"type": "Feature", "geometry": {"type": "Point", "coordinates": [132.35944444444445, 34.40694444444444]}, "properties": {"title": "CARPS"}}, {"type": "Feature", "geometry": {"type": "Point", "coordinates": [132.1472222222222, 34.07944444444445]}, "properties": {"title": "MARCO"}}, {"type": "Feature", "geometry": {"type": "Point", "coordinates": [132.06777777777776, 33.926944444444445]}, "properties": {"title": "SQRUM"}}, {"type": "Feature", "geometry": {"type": "Point", "coordinates": [131.98805555555555, 33.77305555555555]}, "properties": {"title": "YANAI"}}, {"type": "Feature", "geometry": {"type": "Point", "coordinates": [131.70333333333332, 33.22027777777778]}, "properties": {"title": "OOITA"}}, {"type": "Feature", "geometry": {"type": "Point", "coordinates": [131.4025, 32.814166666666665]}, "properties": {"title": "SOBOH"}}, {"type": "Feature", "geometry": {"type": "Point", "coordinates": [131.10277777777776, 32.411944444444444]}, "properties": {"title": "RAFUL"}}, {"type": "Feature", "geometry": {"type": "Point", "coordinates": [130.89749999999998, 32.12777777777778]}, "properties": {"title": "MOCOS"}}, {"type": "Feature", "geometry": {"type": "Point", "coordinates": [130.53722222222223, 31.59638888888889]}, "properties": {"title": "ISKID"}}, {"type": "Feature", "geometry": {"type": "Point", "coordinates": [130.39499999999998, 31.272777777777776]}, "properties": {"title": "MAKRA"}}, {"type": "Feature", "geometry": {"type": "Point", "coordinates": [130.30222222222224, 31.075277777777778]}, "properties": {"title": "SAZMA"}}, {"type": "Feature", "geometry": {"type": "Point", "coordinates": [129.37694444444446, 28.98888888888889]}, "properties": {"title": "ANOXA"}}, {"type": "Feature", "geometry": {"type": "Point", "coordinates": [129.14055555555555, 28.448611111111113]}, "properties": {"title": "MEKAX"}}, {"type": "Feature", "geometry": {"type": "Point", "coordinates": [129.01416666666665, 28.156666666666666]}, "properties": {"title": "HACHA"}}, {"type": "Feature", "geometry": {"type": "Point", "coordinates": [128.32444444444445, 27.002777777777776]}, "properties": {"title": "LEXUS"}}, {"type": "Feature", "geometry": {"type": "Point", "coordinates": [128.03861111111112, 26.67138888888889]}, "properties": {"title": "OKUMA"}}, {"type": "Feature", "geometry": {"type": "Point", "coordinates": [129.91583333333335, 30.84472222222222]}, "properties": {"title": "MOMPA"}}, {"type": "Feature", "geometry": {"type": "Point", "coordinates": [132.48527777777775, 34.43666666666666]}, "properties": {"title": "SUNFL"}}, {"type": "Feature", "geometry": {"type": "Point", "coordinates": [132.1472222222222, 34.07944444444445]}, "properties": {"title": "MARCO"}}, {"type": "Feature", "geometry": {"type": "Point", "coordinates": [130.72, 31.33277777777778]}, "properties": {"title": "KINKO"}}, {"type": "Feature", "geometry": {"type": "Point", "coordinates": [130.61444444444444, 31.178611111111113]}, "properties": {"title": "AMMON"}}, {"type": "Feature", "geometry": {"type": "Point", "coordinates": [130.30222222222224, 31.075277777777778]}, "properties": {"title": "SAZMA"}}, {"type": "Feature", "geometry": {"type": "Point", "coordinates": [130.21444444444444, 29.299722222222226]}, "properties": {"title": "RURIK"}}, {"type": "Feature", "geometry": {"type": "Point", "coordinates": [130.14416666666665, 28.504166666666666]}, "properties": {"title": "POMAS"}}, {"type": "Feature", "geometry": {"type": "Point", "coordinates": [130.14416666666665, 28.504166666666666]}, "properties": {"title": "POMAS"}}, {"type": "Feature", "geometry": {"type": "Point", "coordinates": [135.4413888888889, 33.364444444444445]}, "properties": {"title": "ALBAT"}}, {"type": "Feature", "geometry": {"type": "Point", "coordinates": [135.32888888888888, 33.467777777777776]}, "properties": {"title": "KISEI"}}, {"type": "Feature", "geometry": {"type": "Point", "coordinates": [135.13305555555556, 33.65694444444444]}, "properties": {"title": "EVERT"}}, {"type": "Feature", "geometry": {"type": "Point", "coordinates": [134.9283333333333, 33.875]}, "properties": {"title": "CANDY"}}, {"type": "Feature", "geometry": {"type": "Point", "coordinates": [135.13305555555556, 33.65694444444444]}, "properties": {"title": "EVERT"}}, {"type": "Feature", "geometry": {"type": "Point", "coordinates": [135.19, 33.11138888888889]}, "properties": {"title": "USHIO"}}, {"type": "Feature", "geometry": {"type": "Point", "coordinates": [135.31611111111113, 31.875]}, "properties": {"title": "NIKAI"}}, {"type": "Feature", "geometry": {"type": "Point", "coordinates": [140.79944444444445, 35.72638888888889]}, "properties": {"title": "INUBO"}}, {"type": "Feature", "geometry": {"type": "Point", "coordinates": [139.90333333333334, 35.402499999999996]}, "properties": {"title": "BEACH"}}, {"type": "Feature", "geometry": {"type": "Point", "coordinates": [139.52972222222223, 35.31638888888889]}, "properties": {"title": "HOJYO"}}, {"type": "Feature", "geometry": {"type": "Point", "coordinates": [138.7227777777778, 35.22361111111111]}, "properties": {"title": "GOTEN"}}, {"type": "Feature", "geometry": {"type": "Point", "coordinates": [138.25972222222222, 35.17055555555555]}, "properties": {"title": "IGAWA"}}, {"type": "Feature", "geometry": {"type": "Point", "coordinates": [137.7436111111111, 35.10944444444445]}, "properties": {"title": "BUPPO"}}, {"type": "Feature", "geometry": {"type": "Point", "coordinates": [137.44166666666666, 35.072500000000005]}, "properties": {"title": "DARTS"}}, {"type": "Feature", "geometry": {"type": "Point", "coordinates": [136.18138888888888, 34.58777777777778]}, "properties": {"title": "LABEL"}}, {"type": "Feature", "geometry": {"type": "Point", "coordinates": [134.91472222222222, 34.03638888888889]}, "properties": {"title": "BALSA"}}, {"type": "Feature", "geometry": {"type": "Point", "coordinates": [133.19583333333333, 33.25555555555555]}, "properties": {"title": "SUKMO"}}, {"type": "Feature", "geometry": {"type": "Point", "coordinates": [132.18527777777777, 32.656388888888884]}, "properties": {"title": "DONKY"}}, {"type": "Feature", "geometry": {"type": "Point", "coordinates": [132.07666666666665, 32.59277777777778]}, "properties": {"title": "LEONA"}}, {"type": "Feature", "geometry": {"type": "Point", "coordinates": [129.9647222222222, 31.288611111111113]}, "properties": {"title": "KOSHI"}}, {"type": "Feature", "geometry": {"type": "Point", "coordinates": [129.2011111111111, 30.77472222222222]}, "properties": {"title": "JEDAI"}}, {"type": "Feature", "geometry": {"type": "Point", "coordinates": [127.46472222222222, 29.586944444444445]}, "properties": {"title": "AKVAS"}}, {"type": "Feature", "geometry": {"type": "Point", "coordinates": [126.57916666666667, 28.97]}, "properties": {"title": "URUMA"}}, {"type": "Feature", "geometry": {"type": "Point", "coordinates": [126.13138888888888, 28.636944444444445]}, "properties": {"title": "SAPET"}}, {"type": "Feature", "geometry": {"type": "Point", "coordinates": [124.72055555555556, 27.622222222222224]}, "properties": {"title": "IGMON"}}, {"type": "Feature", "geometry": {"type": "Point", "coordinates": [134.07305555555556, 32.82222222222222]}, "properties": {"title": "MEXIR"}}, {"type": "Feature", "geometry": {"type": "Point", "coordinates": [132.07666666666665, 32.59277777777778]}, "properties": {"title": "LEONA"}}, {"type": "Feature", "geometry": {"type": "Point", "coordinates": [131.10277777777776, 32.411944444444444]}, "properties": {"title": "RAFUL"}}, {"type": "Feature", "geometry": {"type": "Point", "coordinates": [130.5211111111111, 32.29972222222222]}, "properties": {"title": "SASIK"}}, {"type": "Feature", "geometry": {"type": "Point", "coordinates": [129.9647222222222, 31.288611111111113]}, "properties": {"title": "KOSHI"}}, {"type": "Feature", "geometry": {"type": "Point", "coordinates": [140.79944444444445, 35.72638888888889]}, "properties": {"title": "INUBO"}}, {"type": "Feature", "geometry": {"type": "Point", "coordinates": [140.35083333333333, 35.904444444444444]}, "properties": {"title": "RYUGA"}}, {"type": "Feature", "geometry": {"type": "Point", "coordinates": [138.58805555555557, 36.04972222222222]}, "properties": {"title": "KARUI"}}, {"type": "Feature", "geometry": {"type": "Point", "coordinates": [138.13972222222222, 36.07555555555556]}, "properties": {"title": "SUWAH"}}, {"type": "Feature", "geometry": {"type": "Point", "coordinates": [135.2225, 36.200833333333335]}, "properties": {"title": "CHILY"}}, {"type": "Feature", "geometry": {"type": "Point", "coordinates": [134.50333333333333, 36.24277777777778]}, "properties": {"title": "SAMON"}}, {"type": "Feature", "geometry": {"type": "Point", "coordinates": [133.76111111111112, 36.281666666666666]}, "properties": {"title": "DISSH"}}, {"type": "Feature", "geometry": {"type": "Point", "coordinates": [136.48499999999999, 35.3425]}, "properties": {"title": "CHESS"}}, {"type": "Feature", "geometry": {"type": "Point", "coordinates": [136.35777777777778, 35.5325]}, "properties": {"title": "SHIZU"}}, {"type": "Feature", "geometry": {"type": "Point", "coordinates": [136.265, 35.67055555555555]}, "properties": {"title": "MARIA"}}, {"type": "Feature", "geometry": {"type": "Point", "coordinates": [136.2072222222222, 35.76277777777778]}, "properties": {"title": "TRUGA"}}, {"type": "Feature", "geometry": {"type": "Point", "coordinates": [135.80083333333334, 35.945277777777775]}, "properties": {"title": "SABAE"}}, {"type": "Feature", "geometry": {"type": "Point", "coordinates": [135.2225, 36.200833333333335]}, "properties": {"title": "CHILY"}}, {"type": "Feature", "geometry": {"type": "Point", "coordinates": [144.20638888888888, 37.028888888888886]}, "properties": {"title": "ONION"}}, {"type": "Feature", "geometry": {"type": "Point", "coordinates": [142.06166666666667, 38.005833333333335]}, "properties": {"title": "BEKEN"}}, {"type": "Feature", "geometry": {"type": "Point", "coordinates": [139.76111111111112, 38.02611111111111]}, "properties": {"title": "ELDAK"}}, {"type": "Feature", "geometry": {"type": "Point", "coordinates": [134.50333333333333, 36.24277777777778]}, "properties": {"title": "SAMON"}}, {"type": "Feature", "geometry": {"type": "Point", "coordinates": [140.47611111111112, 37.90611111111111]}, "properties": {"title": "LANCE"}}, {"type": "Feature", "geometry": {"type": "Point", "coordinates": [139.72361111111113, 37.76111111111111]}, "properties": {"title": "AIZUH"}}, {"type": "Feature", "geometry": {"type": "Point", "coordinates": [139.53666666666666, 37.68805555555555]}, "properties": {"title": "KAMOH"}}, {"type": "Feature", "geometry": {"type": "Point", "coordinates": [139.21444444444444, 37.56083333333333]}, "properties": {"title": "ETIGO"}}, {"type": "Feature", "geometry": {"type": "Point", "coordinates": [136.94972222222222, 36.63055555555555]}, "properties": {"title": "ZUWAI"}}, {"type": "Feature", "geometry": {"type": "Point", "coordinates": [140.44805555555556, 37.092222222222226]}, "properties": {"title": "LANAI"}}, {"type": "Feature", "geometry": {"type": "Point", "coordinates": [140.2433333333333, 37.06777777777778]}, "properties": {"title": "LIVET"}}, {"type": "Feature", "geometry": {"type": "Point", "coordinates": [140.0038888888889, 37.03861111111111]}, "properties": {"title": "SYOEN"}}, {"type": "Feature", "geometry": {"type": "Point", "coordinates": [139.79777777777778, 37.01305555555555]}, "properties": {"title": "YAGAN"}}, {"type": "Feature", "geometry": {"type": "Point", "coordinates": [139.48472222222222, 36.97361111111111]}, "properties": {"title": "MAUKA"}}, {"type": "Feature", "geometry": {"type": "Point", "coordinates": [139.07527777777779, 36.92055555555555]}, "properties": {"title": "IKAHO"}}, {"type": "Feature", "geometry": {"type": "Point", "coordinates": [138.47916666666666, 36.84305555555556]}, "properties": {"title": "HAKKA"}}, {"type": "Feature", "geometry": {"type": "Point", "coordinates": [138.09305555555557, 36.790277777777774]}, "properties": {"title": "OTARI"}}, {"type": "Feature", "geometry": {"type": "Point", "coordinates": [136.94972222222222, 36.63055555555555]}, "properties": {"title": "ZUWAI"}}, {"type": "Feature", "geometry": {"type": "Point", "coordinates": [134.50333333333333, 36.24277777777778]}, "properties": {"title": "SAMON"}}, {"type": "Feature", "geometry": {"type": "Point", "coordinates": [138.80333333333334, 34.22944444444445]}, "properties": {"title": "CHALK"}}, {"type": "Feature", "geometry": {"type": "Point", "coordinates": [137.79694444444445, 33.72]}, "properties": {"title": "SAKAK"}}, {"type": "Feature", "geometry": {"type": "Point", "coordinates": [137.61972222222224, 33.611111111111114]}, "properties": {"title": "BILLY"}}, {"type": "Feature", "geometry": {"type": "Point", "coordinates": [137.36583333333334, 33.45416666666667]}, "properties": {"title": "SOPHY"}}, {"type": "Feature", "geometry": {"type": "Point", "coordinates": [136.11499999999998, 32.7075]}, "properties": {"title": "MAYON"}}, {"type": "Feature", "geometry": {"type": "Point", "coordinates": [135.5536111111111, 32.34861111111111]}, "properties": {"title": "KENNY"}}, {"type": "Feature", "geometry": {"type": "Point", "coordinates": [134.9972222222222, 31.9875]}, "properties": {"title": "WEBER"}}, {"type": "Feature", "geometry": {"type": "Point", "coordinates": [131.81083333333333, 29.8175]}, "properties": {"title": "TONAR"}}, {"type": "Feature", "geometry": {"type": "Point", "coordinates": [129.58416666666668, 28.44361111111111]}, "properties": {"title": "AMAMI"}}, {"type": "Feature", "geometry": {"type": "Point", "coordinates": [125.59694444444445, 25.26722222222222]}, "properties": {"title": "SHIMO"}}, {"type": "Feature", "geometry": {"type": "Point", "coordinates": [137.7111111111111, 33.36527777777778]}, "properties": {"title": "BOBOT"}}, {"type": "Feature", "geometry": {"type": "Point", "coordinates": [136.11499999999998, 32.7075]}, "properties": {"title": "MAYON"}}, {"type": "Feature", "geometry": {"type": "Point", "coordinates": [131.81083333333333, 29.8175]}, "properties": {"title": "TONAR"}}, {"type": "Feature", "geometry": {"type": "Point", "coordinates": [131.41333333333333, 29.50888888888889]}, "properties": {"title": "NAMPU"}}, {"type": "Feature", "geometry": {"type": "Point", "coordinates": [130.14416666666665, 28.504166666666666]}, "properties": {"title": "POMAS"}}, {"type": "Feature", "geometry": {"type": "Point", "coordinates": [131.81083333333333, 29.8175]}, "properties": {"title": "TONAR"}}, {"type": "Feature", "geometry": {"type": "Point", "coordinates": [128.10805555555555, 27.120555555555555]}, "properties": {"title": "PRIUS"}}, {"type": "Feature", "geometry": {"type": "Point", "coordinates": [127.90277777777779, 27.011111111111113]}, "properties": {"title": "IHEYA"}}, {"type": "Feature", "geometry": {"type": "Point", "coordinates": [135.5536111111111, 32.34861111111111]}, "properties": {"title": "KENNY"}}, {"type": "Feature", "geometry": {"type": "Point", "coordinates": [137.79694444444445, 33.72]}, "properties": {"title": "SAKAK"}}, {"type": "Feature", "geometry": {"type": "Point", "coordinates": [134.50861111111112, 33.91916666666666]}, "properties": {"title": "BECKY"}}, {"type": "Feature", "geometry": {"type": "Point", "coordinates": [134.1875, 33.67333333333333]}, "properties": {"title": "KARIN"}}, {"type": "Feature", "geometry": {"type": "Point", "coordinates": [133.89249999999998, 33.448611111111106]}, "properties": {"title": "BRAVE"}}, {"type": "Feature", "geometry": {"type": "Point", "coordinates": [133.24305555555554, 32.946666666666665]}, "properties": {"title": "STORK"}}, {"type": "Feature", "geometry": {"type": "Point", "coordinates": [132.3961111111111, 32.125277777777775]}, "properties": {"title": "MADOG"}}, {"type": "Feature", "geometry": {"type": "Point", "coordinates": [131.095, 30.465555555555554]}, "properties": {"title": "LUKRA"}}, {"type": "Feature", "geometry": {"type": "Point", "coordinates": [130.7458333333333, 30.0075]}, "properties": {"title": "VEGAR"}}, {"type": "Feature", "geometry": {"type": "Point", "coordinates": [130.21444444444444, 29.299722222222226]}, "properties": {"title": "RURIK"}}, {"type": "Feature", "geometry": {"type": "Point", "coordinates": [129.58416666666668, 28.44361111111111]}, "properties": {"title": "AMAMI"}}, {"type": "Feature", "geometry": {"type": "Point", "coordinates": [127.615, 27.488055555555558]}, "properties": {"title": "YURIX"}}, {"type": "Feature", "geometry": {"type": "Point", "coordinates": [125.32555555555555, 23.569444444444443]}, "properties": {"title": "ALBAX"}}, {"type": "Feature", "geometry": {"type": "Point", "coordinates": [130.3213888888889, 30.009444444444444]}, "properties": {"title": "AKASE"}}, {"type": "Feature", "geometry": {"type": "Point", "coordinates": [130.21444444444444, 29.299722222222226]}, "properties": {"title": "RURIK"}}, {"type": "Feature", "geometry": {"type": "Point", "coordinates": [127.80083333333333, 26.160833333333333]}, "properties": {"title": "AZAMA"}}, {"type": "Feature", "geometry": {"type": "Point", "coordinates": [125.32555555555555, 23.569444444444443]}, "properties": {"title": "ALBAX"}}, {"type": "Feature", "geometry": {"type": "Point", "coordinates": [131.28944444444446, 30.206666666666667]}, "properties": {"title": "KALGU"}}, {"type": "Feature", "geometry": {"type": "Point", "coordinates": [131.0913888888889, 30.00611111111111]}, "properties": {"title": "ASTAK"}}, {"type": "Feature", "geometry": {"type": "Point", "coordinates": [129.58416666666668, 28.44361111111111]}, "properties": {"title": "AMAMI"}}, {"type": "Feature", "geometry": {"type": "Point", "coordinates": [129.58416666666668, 28.44361111111111]}, "properties": {"title": "AMAMI"}}, {"type": "Feature", "geometry": {"type": "Point", "coordinates": [129.01416666666665, 28.156666666666666]}, "properties": {"title": "HACHA"}}, {"type": "Feature", "geometry": {"type": "Point", "coordinates": [128.53472222222223, 27.91861111111111]}, "properties": {"title": "CHAMP"}}, {"type": "Feature", "geometry": {"type": "Point", "coordinates": [127.9563888888889, 27.62361111111111]}, "properties": {"title": "GOYAH"}}, {"type": "Feature", "geometry": {"type": "Point", "coordinates": [138.7227777777778, 35.22361111111111]}, "properties": {"title": "GOTEN"}}, {"type": "Feature", "geometry": {"type": "Point", "coordinates": [137.4738888888889, 34.85305555555556]}, "properties": {"title": "TOHME"}}, {"type": "Feature", "geometry": {"type": "Point", "coordinates": [136.95805555555555, 34.70472222222222]}, "properties": {"title": "KOHWA"}}, {"type": "Feature", "geometry": {"type": "Point", "coordinates": [134.99749999999997, 33.405277777777776]}, "properties": {"title": "RUPAP"}}, {"type": "Feature", "geometry": {"type": "Point", "coordinates": [134.64222222222222, 33.1625]}, "properties": {"title": "TURFY"}}, {"type": "Feature", "geometry": {"type": "Point", "coordinates": [136.13194444444446, 34.35111111111111]}, "properties": {"title": "SINGU"}}, {"type": "Feature", "geometry": {"type": "Point", "coordinates": [135.92777777777778, 34.26361111111111]}, "properties": {"title": "SOMEI"}}, {"type": "Feature", "geometry": {"type": "Point", "coordinates": [135.40944444444446, 34.04055555555556]}, "properties": {"title": "DINAH"}}, {"type": "Feature", "geometry": {"type": "Point", "coordinates": [135.10611111111112, 33.91]}, "properties": {"title": "GOBOH"}}, {"type": "Feature", "geometry": {"type": "Point", "coordinates": [135.03472222222223, 33.94027777777777]}, "properties": {"title": "UBUYU"}}, {"type": "Feature", "geometry": {"type": "Point", "coordinates": [134.93694444444444, 33.98111111111111]}, "properties": {"title": "DATIS"}}, {"type": "Feature", "geometry": {"type": "Point", "coordinates": [136.95805555555555, 34.70472222222222]}, "properties": {"title": "KOHWA"}}, {"type": "Feature", "geometry": {"type": "Point", "coordinates": [136.13194444444446, 34.35111111111111]}, "properties": {"title": "SINGU"}}, {"type": "Feature", "geometry": {"type": "Point", "coordinates": [135.81055555555557, 34.293055555555554]}, "properties": {"title": "RIDGE"}}, {"type": "Feature", "geometry": {"type": "Point", "coordinates": [135.40944444444446, 34.219166666666666]}, "properties": {"title": "DANDE"}}, {"type": "Feature", "geometry": {"type": "Point", "coordinates": [136.95805555555555, 34.70472222222222]}, "properties": {"title": "KOHWA"}}, {"type": "Feature", "geometry": {"type": "Point", "coordinates": [136.31805555555556, 34.516666666666666]}, "properties": {"title": "OHDAI"}}, {"type": "Feature", "geometry": {"type": "Point", "coordinates": [136.09611111111113, 34.48222222222223]}, "properties": {"title": "KODAI"}}, {"type": "Feature", "geometry": {"type": "Point", "coordinates": [136.31805555555556, 34.516666666666666]}, "properties": {"title": "OHDAI"}}, {"type": "Feature", "geometry": {"type": "Point", "coordinates": [135.25166666666667, 34.43]}, "properties": {"title": "KANSAI (KNE)"}}, {"type": "Feature", "geometry": {"type": "Point", "coordinates": [139.72055555555556, 32.77027777777778]}, "properties": {"title": "SABRI"}}, {"type": "Feature", "geometry": {"type": "Point", "coordinates": [138.03416666666666, 34.54333333333333]}, "properties": {"title": "ENSYU"}}, {"type": "Feature", "geometry": {"type": "Point", "coordinates": [137.68055555555554, 34.74777777777778]}, "properties": {"title": "GAKKI"}}, {"type": "Feature", "geometry": {"type": "Point", "coordinates": [136.95805555555555, 34.70472222222222]}, "properties": {"title": "KOHWA"}}, {"type": "Feature", "geometry": {"type": "Point", "coordinates": [139.5263888888889, 35.14611111111111]}, "properties": {"title": "JYOGA"}}, {"type": "Feature", "geometry": {"type": "Point", "coordinates": [139.22916666666666, 35.11222222222222]}, "properties": {"title": "SENNA"}}, {"type": "Feature", "geometry": {"type": "Point", "coordinates": [138.75472222222223, 35.0575]}, "properties": {"title": "NUMAR"}}, {"type": "Feature", "geometry": {"type": "Point", "coordinates": [137.7725, 34.901944444444446]}, "properties": {"title": "WASBI"}}, {"type": "Feature", "geometry": {"type": "Point", "coordinates": [137.4738888888889, 34.85305555555556]}, "properties": {"title": "TOHME"}}, {"type": "Feature", "geometry": {"type": "Point", "coordinates": [137.03444444444443, 34.51138888888889]}, "properties": {"title": "HANTO"}}, {"type": "Feature", "geometry": {"type": "Point", "coordinates": [136.40055555555557, 33.835]}, "properties": {"title": "NADAR"}}, {"type": "Feature", "geometry": {"type": "Point", "coordinates": [136.1, 33.507777777777775]}, "properties": {"title": "SIOMI"}}, {"type": "Feature", "geometry": {"type": "Point", "coordinates": [136.40055555555557, 33.835]}, "properties": {"title": "NADAR"}}, {"type": "Feature", "geometry": {"type": "Point", "coordinates": [136.11499999999998, 32.7075]}, "properties": {"title": "MAYON"}}, {"type": "Feature", "geometry": {"type": "Point", "coordinates": [139.4983333333333, 34.119166666666665]}, "properties": {"title": "BUNGU"}}, {"type": "Feature", "geometry": {"type": "Point", "coordinates": [137.42055555555555, 33.08694444444445]}, "properties": {"title": "MISAK"}}, {"type": "Feature", "geometry": {"type": "Point", "coordinates": [136.21944444444443, 32.463055555555556]}, "properties": {"title": "JERID"}}, {"type": "Feature", "geometry": {"type": "Point", "coordinates": [135.31611111111113, 31.875]}, "properties": {"title": "NIKAI"}}, {"type": "Feature", "geometry": {"type": "Point", "coordinates": [135.07638888888889, 31.716944444444444]}, "properties": {"title": "YULIA"}}, {"type": "Feature", "geometry": {"type": "Point", "coordinates": [132.08055555555555, 29.653888888888886]}, "properties": {"title": "SHIBK"}}, {"type": "Feature", "geometry": {"type": "Point", "coordinates": [129.09805555555556, 27.531388888888888]}, "properties": {"title": "TAMAK"}}, {"type": "Feature", "geometry": {"type": "Point", "coordinates": [127.80083333333333, 26.160833333333333]}, "properties": {"title": "AZAMA"}}, {"type": "Feature", "geometry": {"type": "Point", "coordinates": [127.1563888888889, 25.813333333333333]}, "properties": {"title": "CRUXS"}}, {"type": "Feature", "geometry": {"type": "Point", "coordinates": [126.92194444444445, 25.685833333333335]}, "properties": {"title": "GEMNI"}}, {"type": "Feature", "geometry": {"type": "Point", "coordinates": [126.5425, 25.477777777777778]}, "properties": {"title": "FREED"}}, {"type": "Feature", "geometry": {"type": "Point", "coordinates": [125.30111111111111, 24.78611111111111]}, "properties": {"title": "IKEMA"}},